dc_key,race,sex,fatal,date,has_court_case,age,street_name,block_number,zip_code,council_district,police_district,neighborhood,house_district,senate_district,school_catchment,lng,lat
2.02422E+11,Black (Non-Hispanic),Female,Nonfatal,3/3/2024 14:49,No,20,N COLORADO ST,2500,19132,5,22,Sharswood-Stanton,181,3,Tanner G. Duckrey School,-75.160603,39.991663999999986
2.02426E+11,Hispanic (Black or White),Male,Nonfatal,3/1/2024 22:18,No,58,N FRANKLIN ST,2600,19133,5,26,Northern Liberties-West Kensington,197,3,John F. Hartranft School,-75.14468,39.99152300000001
2.02422E+11,Black (Non-Hispanic),Male,Fatal,2/29/2024 22:59,No,49,MOUNT PLEASANT DR,3700,19121,4,22,Park,190,7,James G. Blaine School,-75.200269,39.984621
2.02422E+11,Black (Non-Hispanic),Female,Fatal,2/29/2024 22:59,No,38,MOUNT PLEASANT DR,3700,19121,4,22,Park,190,7,James G. Blaine School,-75.200269,39.984621
2.02419E+11,Black (Non-Hispanic),Male,Nonfatal,2/29/2024 19:30,No,19,MASTER ST,5600,19131,4,19,Haddington-Overbrook,192,7,Universal Charter School at Bluford,-75.233379,39.97346399999999
2.02439E+11,Black (Non-Hispanic),Male,Fatal,2/29/2024 1:53,No,31,PULASKI AVE,5500,19144,8,39,East Falls-Westside,198,3,John B. Kelly School,-75.178989,40.02938700000001
Neighborhood,Black (Non-Hispanic),Male,Nonfatal,2/28/2024 22:24,No,29,WOODLAND AVE,6400,19142,2,12,Paschall-Kingsessing,191,8,Joseph W. Catharine School,-75.233287,39.926399
2.02416E+11,Black (Non-Hispanic),Male,Nonfatal,2/28/2024 21:44,No,38,LANCASTER AVE,4200,19104,3,16,Mill Creek-Parkside,190,7,Martha Washington School,-75.209012,39.96721300000001
2.02416E+11,Black (Non-Hispanic),Male,Fatal,2/28/2024 21:44,No,44,LANCASTER AVE,4200,19104,3,16,Mill Creek-Parkside,190,7,Martha Washington School,-75.209012,39.96721300000001
2.02416E+11,Black (Non-Hispanic),Female,Nonfatal,2/28/2024 21:44,No,44,LANCASTER AVE,4200,19104,3,16,Mill Creek-Parkside,190,7,Martha Washington School,-75.209115,39.967115
2.02422E+11,Black (Non-Hispanic),Male,Nonfatal,2/28/2024 3:24,No,32,N 19TH ST,2400,19132,5,22,Strawberry Mansion,181,3,William Dick School,-75.163543,39.990495000000024
2.02403E+11,Asian,Female,Fatal,2/27/2024 18:55,Yes,31,S MARSHALL ST,2300,19148,1,3,Snyder-Whitman,184,1,Francis S. Key School,-75.157934,39.919376999999976
2.02439E+11,Black (Non-Hispanic),Male,Nonfatal,2/27/2024 16:34,No,18,W VENANGO ST,2000,19140,8,39,Nicetown-Tioga,198,3,Mastery Charter School at Cleveland,-75.161294,40.008888000000006
2.02435E+11,Black (Non-Hispanic),Male,Nonfatal,2/27/2024 1:27,No,36,N 5TH ST,5400,19120,9,35,Olney-Feltonville,179,3,Thurgood Marshall School,-75.131237,40.03352399999999
2.02422E+11,Black (Non-Hispanic),Male,Nonfatal,2/26/2024 21:45,No,21,W MONTGOMERY AVE,2700,19121,5,22,Strawberry Mansion,195,3,William D. Kelley School,-75.178601,39.98292399999999
2.02422E+11,Black (Non-Hispanic),Male,Nonfatal,2/26/2024 21:45,No,29,W MONTGOMERY AVE,2700,19121,5,22,Strawberry Mansion,195,3,William D. Kelley School,-75.178601,39.98292399999999
2.02422E+11,Black (Non-Hispanic),Male,Nonfatal,2/26/2024 21:45,No,28,W MONTGOMERY AVE,2700,19121,5,22,Strawberry Mansion,195,3,William D. Kelley School,-75.178601,39.98292399999999
2.02419E+11,Black (Non-Hispanic),Male,Nonfatal,2/26/2024 21:24,No,14,MARKET ST,5900,19139,3,18,Cobbs Creek,191,8,John Barry School,-75.23893,39.96168
2.02439E+11,Black (Non-Hispanic),Male,Nonfatal,2/26/2024 5:34,No,25,N 16TH ST,3900,19140,8,39,Nicetown-Tioga,198,3,Mastery Charter School at Cleveland,-75.153812,40.01284600000002
2.02435E+11,Black (Non-Hispanic),Male,Fatal,2/26/2024 0:17,No,38,WAGNER AVE,1000,19141,9,35,Logan,201,3,Lindley Academy Charter at Birney,-75.140565,40.03369500000001
2.02414E+11,Black (Non-Hispanic),Male,Nonfatal,2/25/2024 18:04,Yes,41,E MOUNT AIRY AVE,600,19119,8,14,East Mt. Airy,200,4,Henry H. Houston School,-75.182918,40.06778099999999
2.02435E+11,Black (Non-Hispanic),Male,Nonfatal,2/25/2024 17:30,No,19,W ALBANUS ST,300,19120,8,35,Olney-Feltonville,179,3,Andrew J. Morrison School,-75.130235,40.026393000000006
2.02435E+11,Black (Non-Hispanic),Male,Nonfatal,2/25/2024 0:42,No,23,N 5TH ST,5900,19120,9,35,Olney-Feltonville,179,3,James R. Lowell School,-75.129218,40.041912000000025
2.02407E+11,White (Non-Hispanic),Male,Nonfatal,2/24/2024 23:00,Yes,35,DENSMORE RD,400,19116,10,7,Somerton,170,5,Watson Comly School,-75.026203,40.12196600000001
2.02425E+11,Hispanic (Black or White),Male,Nonfatal,2/24/2024 20:50,Yes,20,N BROAD ST,4200,19140,8,39,Nicetown-Tioga,198,3,Edward T. Steel School,-75.149566,40.017316
2.02439E+11,Black (Non-Hispanic),Male,Nonfatal,2/24/2024 9:36,No,19,N 57TH ST,1800,19131,4,19,Haddington-Overbrook,192,7,Universal Charter School at Bluford,-75.235904,39.97997899999999
2.02439E+11,Black (Non-Hispanic),Male,Nonfatal,2/23/2024 20:50,No,32,JUDSON ST,2800,19132,8,39,Nicetown-Tioga,197,3,Thomas M. Peirce School,-75.169869,39.997552
2.02435E+11,Black (Non-Hispanic),Female,Nonfatal,2/23/2024 19:56,Yes,33,STENTON AVE,4800,19144,8,35,Logan,198,3,Mastery Charter School at Wister,-75.158075,40.02988799999999
2.02422E+11,Black (Non-Hispanic),Female,Nonfatal,2/22/2024 17:22,Yes,19,W GORDON ST,2600,19132,5,22,Strawberry Mansion,195,7,Richard R. Wright School,-75.175327,39.991063999999994
2.02422E+11,Black (Non-Hispanic),Female,Nonfatal,2/22/2024 2:00,No,23,N 16TH ST,2400,19132,5,22,Sharswood-Stanton,197,3,Tanner G. Duckrey School,-75.158819,39.98990599999999
2.02435E+11,Black (Non-Hispanic),Male,Nonfatal,2/21/2024 18:22,No,23,N BROAD ST,6900,19126,9,35,Oak Lane - Fernrock,203,3,Ellwood School,-75.14027,40.058662999999996
2.02435E+11,Black (Non-Hispanic),Male,Fatal,2/20/2024 20:04,Yes,21,W SOMERVILLE AVE,500,19120,9,35,Olney-Feltonville,179,3,Thurgood Marshall School,-75.131484,40.03372600000001
2.02412E+11,Black (Non-Hispanic),Male,Fatal,2/20/2024 14:01,Yes,43,UPLAND ST,6700,19142,2,12,Paschall-Kingsessing,191,8,Joseph W. Catharine School,-75.238878,39.92539599999999
2.02439E+11,Black (Non-Hispanic),Male,Nonfatal,2/19/2024 13:47,No,38,N TAYLOR ST,2800,19132,4,39,Nicetown-Tioga,198,7,Thomas M. Peirce School,-75.171457,39.99787899999999
2.02415E+11,Black (Non-Hispanic),Male,Nonfatal,2/19/2024 5:32,No,57,PRATT ST,1300,19124,7,15,Frankford,179,2,The Philadelphia Charter School for Arts and Sciences,-75.082319,40.024913000000005
2.02424E+11,Black (Non-Hispanic),Male,Nonfatal,2/18/2024 23:44,No,34,E ST,2900,19134,7,24,Upper Kensington,180,2,Lewis Elkin School,-75.120229,39.993286999999995
2.02419E+11,Black (Non-Hispanic),Male,Nonfatal,2/18/2024 22:00,No,56,N 62ND ST,300,19139,4,19,Haddington-Overbrook,192,7,John Barry School,-75.243616,39.967423999999994
2.02426E+11,Hispanic (Black or White),Male,Nonfatal,2/18/2024 1:48,No,41,DIAMOND ST,100,19122,7,26,Northern Liberties-West Kensington,181,1,John Moffet School,-75.134067,39.981758
2.02426E+11,Hispanic (Black or White),Female,Nonfatal,2/18/2024 1:48,No,19,DIAMOND ST,100,19122,7,26,Northern Liberties-West Kensington,181,1,John Moffet School,-75.134067,39.981758
2.02415E+11,Black (Non-Hispanic),Male,Nonfatal,2/17/2024 16:23,No,31,ARROTT ST,1300,19124,7,15,Frankford,179,2,John Marshall School,-75.086378,40.01794899999999
2.02435E+11,Black (Non-Hispanic),Male,Nonfatal,2/17/2024 1:02,No,16,N 5TH ST,4800,19120,8,35,Olney-Feltonville,201,3,Thurgood Marshall School,-75.133124,40.024905000000004
2.02422E+11,Black (Non-Hispanic),Male,Fatal,2/16/2024 23:23,No,32,W ARIZONA ST,2500,19132,5,22,Strawberry Mansion,195,7,Richard R. Wright School,-75.174681,39.99155999999999
2.02435E+11,Black (Non-Hispanic),Male,Nonfatal,2/15/2024 23:44,No,18,ROSELYN ST,0,19120,9,35,Olney-Feltonville,203,3,Thomas K. Finletter School,-75.12021,40.041997
2.02402E+11,Black (Non-Hispanic),Male,Fatal,2/15/2024 20:54,No,20,ROSALIE ST,500,19120,9,2,Lawndale-Crescentville,203,2,Benjamin Franklin School,-75.103713,40.04324299999999
2.02412E+11,Black (Non-Hispanic),Male,Nonfatal,2/15/2024 15:34,No,18,WHITBY AVE,5400,19143,3,12,Paschall-Kingsessing,188,8,Avery D. Harrington School,-75.22965,39.945188999999985
2.02419E+11,Black (Non-Hispanic),Male,Fatal,2/15/2024 13:04,No,52,N 53RD ST,1800,19131,4,19,Overbrook Park-Wynnefield Heights,192,7,Mastery Charter School at Mann,-75.22854,39.985598999999986
2.02425E+11,Hispanic (Black or White),Male,Nonfatal,2/15/2024 4:04,No,61,E WYOMING AVE,400,19120,7,25,Hunting Park-Fairhill,197,3,Clara Barton School,-75.116463,40.02065
2.02422E+11,Black (Non-Hispanic),Male,Nonfatal,2/14/2024 18:26,No,23,N BROAD ST,1700,19121,5,22,Sharswood-Stanton,181,3,General George G. Meade School,-75.157926,39.979023
2.02415E+11,Hispanic (Black or White),Male,Nonfatal,2/14/2024 17:44,No,18,E CHELTENHAM AVE,1300,19124,7,15,Frankford,179,2,The Philadelphia Charter School for Arts and Sciences,-75.083789,40.031206
2.02424E+11,Hispanic (Black or White),Male,Nonfatal,2/14/2024 11:07,Yes,42,KENSINGTON AVE,2800,19134,7,24,Upper Kensington,180,2,Lewis Elkin School,-75.121036,39.992376000000014
2.02439E+11,Black (Non-Hispanic),Female,Fatal,2/13/2024 15:48,No,32,N 17TH ST,3600,19140,8,39,Nicetown-Tioga,198,3,Mastery Charter School at Cleveland,-75.156309,40.008877
2.02439E+11,Black (Non-Hispanic),Male,Fatal,2/13/2024 15:48,No,30,N 17TH ST,3600,19140,8,39,Nicetown-Tioga,198,3,Mastery Charter School at Cleveland,-75.156309,40.008877
2.02415E+11,Black (Non-Hispanic),Male,Nonfatal,2/13/2024 12:22,Yes,50,TULIP ST,5900,19135,6,15,Wissinoming-Tacony,177,5,Henry W. Lawton School,-75.057892,40.015488
2.02415E+11,Black (Non-Hispanic),Male,Fatal,2/12/2024 18:42,Yes,36,BERMUDA ST,4300,19124,7,15,Frankford,177,2,Allen M. Stearne School,-75.082212,40.00412
2.02425E+11,Black (Non-Hispanic),Male,Nonfatal,2/12/2024 18:35,No,33,W PIKE ST,1300,19140,5,25,Nicetown-Tioga,197,3,Mary M. Bethune School,-75.148411,40.012052
2.02422E+11,Black (Non-Hispanic),Male,Fatal,2/12/2024 11:42,No,76,N 26TH ST,2400,19132,5,22,Strawberry Mansion,195,7,Richard R. Wright School,-75.174682,39.992878
2.02422E+11,Black (Non-Hispanic),Male,Nonfatal,2/11/2024 1:26,No,17,N 19TH ST,2000,19121,5,22,Sharswood-Stanton,181,3,Mastery Charter School at Douglass,-75.164424,39.98526199999999
2.02422E+11,Black (Non-Hispanic),Female,Nonfatal,2/11/2024 1:26,No,15,N 19TH ST,2000,19121,5,22,Sharswood-Stanton,181,3,Mastery Charter School at Douglass,-75.164424,39.98526199999999
2.02422E+11,Black (Non-Hispanic),Male,Nonfatal,2/11/2024 1:24,No,18,N 19TH ST,2000,19121,5,22,Sharswood-Stanton,181,3,Mastery Charter School at Douglass,-75.164424,39.98526199999999
2.02435E+11,Black (Non-Hispanic),Male,Nonfatal,2/11/2024 0:06,No,35,W GODFREY AVE,1900,19141,8,35,Ogontz,201,4,Joseph Pennell School,-75.152153,40.04862599999999
2.02425E+11,Hispanic (Black or White),Male,Fatal,2/11/2024 0:00,No,22,N WARNOCK ST,3600,19140,5,25,Hunting Park-Fairhill,197,3,Mary M. Bethune School,-75.14554,40.00728800000001
2.02424E+11,Hispanic (Black or White),Male,Nonfatal,2/10/2024 21:42,No,21,E CAYUGA ST,1100,19124,7,24,Juniata Park-Harrowgate,180,2,Juniata Park Academy,-75.105287,40.01430599999999
2.02424E+11,Hispanic (Black or White),Male,Fatal,2/10/2024 20:36,No,26,N LEE ST,3100,19133,7,24,Hunting Park-Fairhill,180,2,Lewis Elkin School,-75.129028,39.997226999999995
2.02402E+11,Hispanic (Black or White),Male,Nonfatal,2/10/2024 15:18,Yes,20,N HILL CREEK DR,5500,19120,9,2,Lawndale-Crescentville,203,2,Universal Charter School at Creighton,-75.109738,40.038407
2.02422E+11,Black (Non-Hispanic),Male,Nonfatal,2/9/2024 22:00,No,14,N 18TH ST,2300,19132,5,22,Sharswood-Stanton,181,3,Tanner G. Duckrey School,-75.162295,39.98880200000001
2.02424E+11,Hispanic (Black or White),Male,Fatal,2/9/2024 21:25,No,15,RUTH ST,2900,19134,7,24,Upper Kensington,175,1,Frances E. Willard School,-75.119186,39.99266100000001
2.02409E+11,Black (Non-Hispanic),Male,Nonfatal,2/9/2024 18:54,Yes,17,S TANEY ST,400,19146,2,9,Center City West,182,1,Albert M. Greenfield School,-75.183374,39.947480999999996
2.02415E+11,Black (Non-Hispanic),Male,Nonfatal,2/9/2024 5:28,No,22,FRANKFORD AVE,4900,19124,7,15,Frankford,179,2,The Philadelphia Charter School for Arts and Sciences,-75.081033,40.019757
2.02425E+11,Hispanic (Black or White),Male,Fatal,2/8/2024 20:57,Yes,34,N 8TH ST,3600,19140,7,25,Hunting Park-Fairhill,197,3,Bayard Taylor School,-75.141658,40.00775399999999
2.02425E+11,Hispanic (Black or White),Male,Nonfatal,2/8/2024 20:56,No,32,HOPE ST,3300,19140,7,25,Hunting Park-Fairhill,180,2,William Cramp School,-75.129431,40.00047599999999
2.02435E+11,Black (Non-Hispanic),Male,Fatal,2/7/2024 19:15,No,24,N LAWRENCE ST,4800,19120,8,35,Olney-Feltonville,179,3,Andrew J. Morrison School,-75.132364,40.024361000000006
2.02426E+11,Black (Non-Hispanic),Male,Nonfatal,2/6/2024 17:52,No,45,N DARIEN ST,2100,19122,5,26,Poplar-Temple,181,3,William McKinley School,-75.147231,39.984934
2.02418E+11,Black (Non-Hispanic),Female,Nonfatal,2/6/2024 17:20,Yes,27,S DEWEY ST,0,19139,3,18,Cobbs Creek,191,8,John Barry School,-75.243551,39.961888
2.02412E+11,Black (Non-Hispanic),Male,Nonfatal,2/6/2024 15:50,No,12,LINDBERGH BLVD,5300,19143,3,12,Airport-Navy Yard,186,8,Benjamin B. Comegys School,-75.214367,39.934373
2.02412E+11,Black (Non-Hispanic),Male,Nonfatal,2/6/2024 15:50,No,34,LINDBERGH BLVD,5300,19143,3,12,Airport-Navy Yard,186,8,Benjamin B. Comegys School,-75.214367,39.934373
2.02435E+11,Black (Non-Hispanic),Male,Nonfatal,2/5/2024 19:30,Yes,34,N BROAD ST,5600,19141,8,35,Ogontz,201,4,Julia W. Howe School,-75.144716,40.039515
2.02435E+11,Black (Non-Hispanic),Male,Nonfatal,2/5/2024 12:02,No,38,W OLNEY AVE,400,19120,9,35,Olney-Feltonville,179,3,James R. Lowell School,-75.129268,40.036333
2.02412E+11,Black (Non-Hispanic),Male,Fatal,2/4/2024 0:18,No,26,GRAYS AVE,6500,19142,2,12,Eastwick-Elmwood,185,8,Thomas G. Morton School,-75.231931,39.92331699999998
2.02415E+11,Hispanic (Black or White),Male,Fatal,2/3/2024 22:37,No,19,DUFFIELD ST,5000,19124,7,15,Frankford,179,2,Mastery Charter School at Smedley,-75.076862,40.019673000000004
2.02403E+11,White (Non-Hispanic),Female,Nonfatal,2/3/2024 22:23,No,35,MOUNTAIN ST,500,19148,1,3,Pennsport-Queen Village,184,1,Eliza B. Kirkbride School,-75.154477,39.92794000000001
2.02402E+11,Hispanic (Black or White),Male,Nonfatal,2/3/2024 11:17,No,23,ROBBINS ST,400,19111,9,2,Lawndale-Crescentville,202,2,J. Hampton Moore School,-75.097776,40.048941
2.02422E+11,Black (Non-Hispanic),Female,Nonfatal,2/3/2024 1:51,No,29,N 27TH ST,2500,19132,5,22,Strawberry Mansion,195,7,Richard R. Wright School,-75.176222,39.99362900000002
2.02415E+11,Black (Non-Hispanic),Male,Nonfatal,2/3/2024 1:22,No,27,SCATTERGOOD ST,1700,19124,7,15,Frankford,202,2,Mastery Charter School at Smedley,-75.074188,40.021589000000006
2.02414E+11,Black (Non-Hispanic),Male,Fatal,2/2/2024 13:03,No,19,SPRAGUE ST,5600,19138,8,14,Germantown,198,4,Mastery Charter School at Pastorius,-75.159529,40.047273
2.02425E+11,Hispanic (Black or White),Male,Nonfatal,2/1/2024 23:00,No,23,N REESE ST,2700,19133,7,25,Hunting Park-Fairhill,197,2,Julia de Burgos School,-75.140696,39.99275999999999
2.02415E+11,Black (Non-Hispanic),Male,Nonfatal,2/1/2024 20:46,No,36,DARRAH ST,5100,19124,7,15,Frankford,179,2,Mastery Charter School at Smedley,-75.077648,40.02119499999999
2.02422E+11,Black (Non-Hispanic),Male,Nonfatal,1/31/2024 6:00,Yes,54,N 12TH ST,1300,19122,5,22,Poplar-Temple,181,1,Paul L. Dunbar School,-75.154902,39.97357599999999
2.02416E+11,Black (Non-Hispanic),Female,Fatal,1/30/2024 1:23,No,33,MELON ST,3900,19104,3,16,Mill Creek-Parkside,195,7,Belmont Charter School,-75.200743,39.964673999999995
2.02439E+11,Black (Non-Hispanic),Male,Nonfatal,1/29/2024 20:51,Yes,42,N 22ND ST,3100,19132,8,39,Nicetown-Tioga,198,3,Thomas M. Peirce School,-75.165882,40.00309
2.02419E+11,Black (Non-Hispanic),Male,Fatal,1/29/2024 13:37,Yes,19,N 55TH ST,1400,19131,4,19,Haddington-Overbrook,192,7,Edward Heston School,-75.231069,39.97389199999997
2.02401E+11,Black (Non-Hispanic),Male,Nonfatal,1/28/2024 22:53,No,38,JACKSON ST,2100,19145,2,1,South Broad-Girard Estates,186,8,Stephen Girard School,-75.181462,39.92461899999999
2.02416E+11,Black (Non-Hispanic),Male,Nonfatal,1/28/2024 9:35,No,51,MARKET ST,5200,19139,3,18,Cobbs Creek,190,7,Global Leadership Academy at Huey,-75.225288,39.959977
2.02418E+11,Black (Non-Hispanic),Male,Fatal,1/27/2024 23:30,Yes,29,S CECIL ST,800,19143,3,18,Cobbs Creek,188,8,Mastery Charter School at Harrity,-75.238986,39.947631
2.02415E+11,Hispanic (Black or White),Male,Nonfatal,1/27/2024 0:40,No,37,ORTHODOX ST,900,19124,7,15,Frankford,177,2,John Marshall School,-75.095438,40.01954100000002
20242505109,Black (Non-Hispanic),Male,Nonfatal,1/26/2024 20:46,No,36,W CAMBRIA ST,100,19133,7,25,Hunting Park-Fairhill,180,2,Isaac A. Sheppard School,-75.132011,39.994055
2.02412E+11,Black (Non-Hispanic),Male,Fatal,1/26/2024 19:24,No,28,PENTRIDGE ST,5600,19143,3,12,Paschall-Kingsessing,188,8,William C. Longstreth School,-75.231771,39.94081599999999
2.02412E+11,Black (Non-Hispanic),Male,Nonfatal,1/26/2024 19:24,No,36,PENTRIDGE ST,5600,19143,3,12,Paschall-Kingsessing,188,8,William C. Longstreth School,-75.231771,39.94081599999999
2.02412E+11,Black (Non-Hispanic),Female,Nonfatal,1/26/2024 19:24,No,55,PENTRIDGE ST,5600,19143,3,12,Paschall-Kingsessing,188,8,William C. Longstreth School,-75.231771,39.94081599999999
2.02425E+11,Black (Non-Hispanic),Female,Nonfatal,1/25/2024 19:36,No,30,N BROAD ST,3400,19140,5,25,Nicetown-Tioga,197,3,Mary M. Bethune School,-75.15192,40.00539299999999
2.02425E+11,Black (Non-Hispanic),Male,Nonfatal,1/25/2024 11:36,No,24,N BROAD ST,3400,19140,5,25,Nicetown-Tioga,197,3,Mary M. Bethune School,-75.15192,40.00539299999999
2.02422E+11,Black (Non-Hispanic),Female,Nonfatal,1/25/2024 3:08,No,52,N BANCROFT ST,2500,19132,5,22,Sharswood-Stanton,197,3,Tanner G. Duckrey School,-75.15904,39.991378999999995
2.02435E+11,Black (Non-Hispanic),Male,Nonfatal,1/25/2024 1:40,No,40,W ROCKLAND ST,1200,19141,8,35,Logan,201,3,Jay Cooke School,-75.143604,40.027136
2.02435E+11,Black (Non-Hispanic),Male,Fatal,1/24/2024 15:30,No,43,N HUTCHINSON ST,5100,19141,8,35,Logan,201,3,Lindley Academy Charter at Birney,-75.138829,40.02969600000001
2.02414E+11,Black (Non-Hispanic),Male,Nonfatal,1/24/2024 9:14,No,20,STENTON AVE,2200,19138,9,14,Ogontz,203,4,William Rowen School,-75.157893,40.05553000000001
2.02412E+11,Black (Non-Hispanic),Male,Fatal,1/21/2024 18:44,No,33,S 71ST ST,2500,19142,2,12,Eastwick-Elmwood,185,8,John M. Patterson School,-75.238915,39.91585400000001
2.02412E+11,Black (Non-Hispanic),Male,Nonfatal,1/21/2024 18:44,No,33,S 71ST ST,2500,19142,2,12,Eastwick-Elmwood,185,8,John M. Patterson School,-75.238915,39.91585400000001
2.02425E+11,Hispanic (Black or White),Male,Nonfatal,1/21/2024 8:16,No,35,E ROCKLAND ST,100,19120,7,25,Olney-Feltonville,197,3,Clara Barton School,-75.123234,40.024575
2.02439E+11,Black (Non-Hispanic),Male,Nonfatal,1/21/2024 3:11,No,26,N CROSKEY ST,2700,19132,8,39,Nicetown-Tioga,197,3,Thomas M. Peirce School,-75.16815,39.995753
2.02425E+11,Hispanic (Black or White),Male,Nonfatal,1/20/2024 23:41,Yes,44,N HOWARD ST,4800,19120,7,25,Olney-Feltonville,197,3,Clara Barton School,-75.124896,40.02454000000001
2.02415E+11,Black (Non-Hispanic),Male,Fatal,1/19/2024 14:10,No,17,ROMAIN ST,4200,19124,7,15,Frankford,177,2,John Marshall School,-75.090419,40.010303
2.02416E+11,Black (Non-Hispanic),Male,Fatal,1/18/2024 15:41,No,18,N 51ST ST,0,19139,3,16,Haddington-Overbrook,190,7,Alain Locke School,-75.222846,39.960285000000006
2.02425E+11,Hispanic (Black or White),Male,Fatal,1/18/2024 2:11,No,31,N 5TH ST,4700,19120,7,25,Olney-Feltonville,197,3,Clara Barton School,-75.133277,40.023363999999994
2.02415E+11,Black (Non-Hispanic),Male,Nonfatal,1/16/2024 23:06,No,37,DYRE ST,1400,19124,7,15,Frankford,179,2,The Philadelphia Charter School for Arts and Sciences,-75.080297,40.02188499999999
2.02424E+11,Black (Non-Hispanic),Male,Fatal,1/16/2024 18:41,No,33,KENSINGTON AVE,3700,19124,1,24,Juniata Park-Harrowgate,177,5,John H. Webster School,-75.100296,40.003617
2.02412E+11,Black (Non-Hispanic),Male,Nonfatal,1/16/2024 17:27,No,31,BALTIMORE AVE,5700,19143,3,12,Paschall-Kingsessing,191,8,Add B. Anderson School,-75.238731,39.946136
2.02415E+11,Black (Non-Hispanic),Male,Nonfatal,1/15/2024 21:04,No,17,COTTMAN AVE,2800,19152,6,15,Mayfair-Holmesburg,177,2,Mayfair School,-75.053651,40.04418499999999
2.02418E+11,Black (Non-Hispanic),Female,Nonfatal,1/15/2024 13:01,Yes,25,S MELVILLE ST,200,19139,3,18,University City,188,8,Sadie Alexander School,-75.212694,39.955107
2.02415E+11,Hispanic (Black or White),Male,Nonfatal,1/15/2024 2:10,Yes,41,TYSON AVE,3000,19149,6,15,Mayfair-Holmesburg,172,2,Mayfair School,-75.054569,40.037966999999995
2.02422E+11,Black (Non-Hispanic),Male,Nonfatal,1/15/2024 0:52,No,21,N JESSUP ST,2500,19133,5,22,Poplar-Temple,181,3,Mastery Charter School at Clymer,-75.150292,39.99124499999999
2.02416E+11,Black (Non-Hispanic),Male,Nonfatal,1/15/2024 0:45,No,34,FILBERT ST,3800,19104,3,16,University City,190,7,Samuel Powel School,-75.199464,39.957622
2.02412E+11,Asian,Male,Nonfatal,1/14/2024 15:17,No,66,W PASSYUNK AVE,6000,19153,2,1,Airport-Navy Yard,191,8,Universal Charter School at Alcorn,-75.201857,39.91983
2.02416E+11,Black (Non-Hispanic),Male,Nonfatal,1/14/2024 9:49,No,32,N 42ND ST,700,19104,3,16,Mill Creek-Parkside,190,7,Alain Locke School,-75.207302,39.964787
2.02402E+11,Hispanic (Black or White),Male,Nonfatal,1/14/2024 3:47,No,21,HOWLAND ST,5400,19124,9,2,Lawndale-Crescentville,203,2,Universal Charter School at Creighton,-75.103644,40.033922999999994
2.02422E+11,Black (Non-Hispanic),Female,Nonfatal,1/14/2024 0:50,No,34,N MYRTLEWOOD ST,2400,19132,5,22,Strawberry Mansion,195,7,Richard R. Wright School,-75.180527,39.993258
2.02422E+11,Black (Non-Hispanic),Male,Nonfatal,1/14/2024 0:50,No,42,N MYRTLEWOOD ST,2400,19132,5,22,Strawberry Mansion,195,7,Richard R. Wright School,-75.180527,39.993258
2.02422E+11,Black (Non-Hispanic),Female,Nonfatal,1/14/2024 0:50,No,23,N MYRTLEWOOD ST,2400,19132,5,22,Strawberry Mansion,195,7,Richard R. Wright School,-75.180527,39.993258
2.02422E+11,Black (Non-Hispanic),Male,Fatal,1/14/2024 0:50,No,53,N MYRTLEWOOD ST,2400,19132,5,22,Strawberry Mansion,195,7,Richard R. Wright School,-75.180527,39.993258
2.02422E+11,Black (Non-Hispanic),Male,Nonfatal,1/14/2024 0:50,No,28,N MYRTLEWOOD ST,2400,19132,5,22,Strawberry Mansion,195,7,Richard R. Wright School,-75.180527,39.993258
2.02422E+11,Black (Non-Hispanic),Male,Fatal,1/14/2024 0:50,No,41,N MYRTLEWOOD ST,2400,19132,5,22,Strawberry Mansion,195,7,Richard R. Wright School,-75.180527,39.993258
2.02435E+11,Black (Non-Hispanic),Male,Fatal,1/13/2024 21:50,No,30,W ROCKLAND ST,1500,19141,8,35,Logan,198,3,James Logan School,-75.1494,40.027908
2.02439E+11,Black (Non-Hispanic),Male,Nonfatal,1/13/2024 20:21,Yes,30,N 17TH ST,4200,19140,8,39,Nicetown-Tioga,198,3,Edward T. Steel School,-75.154184,40.01841199999999
2.02422E+11,Black (Non-Hispanic),Male,Nonfatal,1/12/2024 12:10,No,46,N 19TH ST,1900,19121,5,22,Strawberry Mansion,181,3,Mastery Charter School at Douglass,-75.165166,39.982944999999994
2.02415E+11,Black (Non-Hispanic),Male,Nonfatal,1/11/2024 23:24,No,20,MARLOW ST,5200,19124,7,15,Frankford,179,2,Mastery Charter School at Smedley,-75.075062,40.019783000000004
2.02409E+11,Black (Non-Hispanic),Male,Fatal,1/11/2024 21:29,Yes,16,MARKET ST,1500,19102,5,9,Center City West,182,1,Albert M. Greenfield School,-75.166064,39.952611
2.02435E+11,Black (Non-Hispanic),Male,Fatal,1/11/2024 20:46,Yes,31,N 6TH ST,5800,19120,9,35,Olney-Feltonville,179,3,James R. Lowell School,-75.13126,40.04085899999997
2.02402E+11,Black (Non-Hispanic),Male,Nonfatal,1/11/2024 19:19,Yes,48,SHISLER ST,6100,19149,9,2,Oxford Circle,202,2,Laura H. Carnell School,-75.082924,40.038139000000015
2.02419E+11,Hispanic (Black or White),Female,Fatal,1/11/2024 14:49,No,33,MASTER ST,5400,19131,4,19,Haddington-Overbrook,192,7,Edward Heston School,-75.230702,39.973726
2.02424E+11,Hispanic (Black or White),Male,Fatal,1/11/2024 14:06,No,44,EMERALD ST,2700,19125,1,24,Upper Kensington,175,2,Frances E. Willard School,-75.12335,39.98796299999999
2.02424E+11,Black (Non-Hispanic),Male,Nonfatal,1/11/2024 9:19,No,32,KENSINGTON AVE,3900,19124,7,24,Juniata Park-Harrowgate,180,2,Francis Hopkinson School,-75.09633,40.005947
2.02435E+11,Hispanic (Black or White),Male,Nonfatal,1/10/2024 20:40,No,41,N 5TH ST,6700,19126,9,35,Oak Lane - Fernrock,203,3,Thomas K. Finletter School,-75.126095,40.054864000000016
2.02416E+11,Black (Non-Hispanic),Female,Nonfatal,1/9/2024 22:29,No,35,DEARBORN ST,400,19139,3,16,Mill Creek-Parkside,190,7,James Rhoads School,-75.22146,39.965164
2.02422E+11,Black (Non-Hispanic),Male,Nonfatal,1/9/2024 17:03,No,15,N BOUVIER ST,2600,19132,5,22,Sharswood-Stanton,181,3,Tanner G. Duckrey School,-75.160672,39.993387
2.02435E+11,Black (Non-Hispanic),Male,Nonfatal,1/8/2024 17:11,Yes,21,LINDLEY AVE,1100,19141,9,35,Logan,201,3,Lindley Academy Charter at Birney,-75.142257,40.03004000000003
2.02415E+11,Black (Non-Hispanic),Male,Fatal,1/8/2024 0:48,No,21,GLENLOCH ST,5000,19124,7,15,Frankford,179,2,Mastery Charter School at Smedley,-75.073766,40.014961
2.02439E+11,Black (Non-Hispanic),Male,Fatal,1/7/2024 4:10,No,16,JUDSON ST,3400,19140,8,39,Nicetown-Tioga,198,3,Mastery Charter School at Cleveland,-75.167183,40.00767099999999
2.02415E+11,Black (Non-Hispanic),Male,Nonfatal,1/6/2024 23:30,No,35,FRANKFORD AVE,4900,19124,7,15,Frankford,179,2,The Philadelphia Charter School for Arts and Sciences,-75.081033,40.019757
2.02425E+11,Black (Non-Hispanic),Male,Nonfatal,1/6/2024 17:10,Yes,45,N ORKNEY ST,2700,19133,7,25,Hunting Park-Fairhill,197,2,Julia de Burgos School,-75.139722,39.992057999999986
2.02425E+11,Hispanic (Black or White),Male,Nonfatal,1/6/2024 17:10,Yes,25,N ORKNEY ST,2700,19133,7,25,Hunting Park-Fairhill,197,2,Julia de Burgos School,-75.139722,39.992057999999986
2.02424E+11,Hispanic (Black or White),Male,Nonfatal,1/6/2024 9:23,No,20,HARTVILLE ST,3100,19134,7,24,Upper Kensington,180,2,Lewis Elkin School,-75.120067,39.996032
2.02422E+11,Black (Non-Hispanic),Male,Nonfatal,1/6/2024 7:09,No,26,W LEHIGH AVE,2800,19132,5,22,Strawberry Mansion,195,7,Dr. Ethel Allen School,-75.177082,39.996781
2.02435E+11,Black (Non-Hispanic),Male,Nonfatal,1/5/2024 21:59,No,28,N 11TH ST,5200,19141,9,35,Logan,201,3,Lindley Academy Charter at Birney,-75.140886,40.03168999999999
2.02415E+11,Black (Non-Hispanic),Male,Nonfatal,1/5/2024 12:41,No,38,VALLEY PL,4700,19124,7,15,Frankford,179,2,Mastery Charter School at Smedley,-75.07728,40.013776
2.02435E+11,Black (Non-Hispanic),Male,Fatal,1/5/2024 8:09,No,25,N SMEDLEY ST,4900,19141,8,35,Logan,198,4,James Logan School,-75.150951,40.029284000000004
2.02416E+11,Black (Non-Hispanic),Male,Nonfatal,1/4/2024 23:11,Yes,42,W STILES ST,4200,19104,3,16,Mill Creek-Parkside,190,7,Rudolph Blankenburg School,-75.210672,39.974153
2.02435E+11,Black (Non-Hispanic),Male,Nonfatal,1/4/2024 19:29,Yes,24,E WELLENS ST,200,19120,9,35,Olney-Feltonville,179,3,Olney School,-75.120498,40.02966600000001
2.02435E+11,Black (Non-Hispanic),Male,Nonfatal,1/4/2024 19:29,Yes,15,E WELLENS ST,200,19120,9,35,Olney-Feltonville,179,3,Olney School,-75.120498,40.02966600000001
2.02426E+11,Black (Non-Hispanic),Male,Nonfatal,1/4/2024 18:48,No,18,N 7TH ST,2600,19133,5,26,Northern Liberties-West Kensington,197,3,John F. Hartranft School,-75.144187,39.990991999999984
2.02435E+11,Black (Non-Hispanic),Male,Fatal,1/4/2024 11:17,Yes,37,OGONTZ AVE,5000,19141,8,35,Logan,198,4,James Logan School,-75.15329,40.030013
2.02425E+11,Black (Non-Hispanic),Male,Fatal,1/3/2024 23:55,No,46,N ORKNEY ST,2900,19133,7,25,Hunting Park-Fairhill,197,2,Julia de Burgos School,-75.13883,39.996115999999994
2.02402E+11,Black (Non-Hispanic),Male,Nonfatal,1/3/2024 22:54,No,27,COTTMAN AVE,1300,19111,9,2,Oxford Circle,202,2,Kennedy C. Crossan School,-75.077056,40.05742299999999
2.02416E+11,Black (Non-Hispanic),Male,Nonfatal,1/3/2024 11:50,Yes,33,N 50TH ST,800,19139,3,16,Mill Creek-Parkside,190,7,James Rhoads School,-75.22058,39.968512000000004
2.02419E+11,Black (Non-Hispanic),Male,Nonfatal,1/3/2024 7:11,No,34,GEORGES LN,1800,19131,4,19,Overbrook Park-Wynnefield Heights,192,7,Mastery Charter School at Mann,-75.229648,39.985092
2.02424E+11,Hispanic (Black or White),Male,Nonfatal,1/2/2024 16:25,No,58,N SWANSON ST,2800,19134,7,24,Hunting Park-Fairhill,180,2,Isaac A. Sheppard School,-75.129134,39.992391999999995
2.02422E+11,Black (Non-Hispanic),Male,Fatal,1/2/2024 8:21,Yes,35,W HAROLD ST,1200,19133,5,22,Poplar-Temple,181,3,Mastery Charter School at Clymer,-75.151444,39.992353
2.02422E+11,Black (Non-Hispanic),Male,Nonfatal,3/3/2024 0:21,No,40,,,,,,,,,,,
2.02406E+11,Black (Non-Hispanic),Male,Fatal,1/21/2024 20:08,No,31,LOCUST ST,200,19106,1,6,Center City East,175,1,General George A. McCall School,-75.145061,39.945109999999985
2.02416E+11,Black (Non-Hispanic),Male,Nonfatal,1/15/2024 2:48,No,24,,,,,,,,,,,
2.02408E+11,Hispanic (Black or White),Male,Nonfatal,1/1/2024 0:20,Yes,27,,,,,,,,,,,
2.02439E+11,Black (Non-Hispanic),Male,Nonfatal,12/31/2023 4:57,No,42,OLD YORK RD,5500,19141,9,35,Logan,201,3,Lindley Academy Charter at Birney,-75.144636,40.03694400000001
2.02324E+11,Hispanic (Black or White),Male,Fatal,12/31/2023 3:35,No,38,E MADISON ST,800,19134,7,24,Upper Kensington,180,2,Philip H. Sheridan School,-75.115145,39.997606999999995
2.02315E+11,White (Non-Hispanic),Male,Nonfatal,12/31/2023 3:13,No,24,COTTMAN AVE,5000,19136,6,15,Wissinoming-Tacony,173,5,Edwin Forrest School,-75.031344,40.02533700000001
2.02314E+11,Black (Non-Hispanic),Male,Nonfatal,12/30/2023 22:56,No,43,W CHELTEN AVE,0,19144,8,14,Germantown,198,3,John B. Kelly School,-75.175045,40.03520399999999
2.02339E+11,Hispanic (Black or White),Male,Nonfatal,12/30/2023 11:32,Yes,29,W TIOGA ST,1700,19140,8,39,Nicetown-Tioga,198,3,Mastery Charter School at Cleveland,-75.156844,40.00684999999998
2.02316E+11,Black (Non-Hispanic),Male,Nonfatal,12/30/2023 3:00,No,18,BELMONT AVE,1000,19104,3,16,Mill Creek-Parkside,190,7,Rudolph Blankenburg School,-75.211786,39.97163
2.02316E+11,Black (Non-Hispanic),Male,Nonfatal,12/30/2023 1:00,No,32,FILBERT ST,3800,19104,3,16,University City,190,7,Samuel Powel School,-75.199464,39.957622
2.02312E+11,Asian,Male,Nonfatal,12/30/2023 0:17,Yes,18,LYONS AVE,8200,19153,2,12,Eastwick-Elmwood,185,1,Penrose School,-75.246985,39.897991
2.02324E+11,Black (Non-Hispanic),Male,Nonfatal,12/29/2023 23:54,No,43,HELEN ST,3000,19134,1,24,Upper Kensington,175,1,Frances E. Willard School,-75.115274,39.9929
2.02325E+11,Black (Non-Hispanic),Male,Nonfatal,12/29/2023 18:33,No,32,N 8TH ST,2800,19133,5,25,Hunting Park-Fairhill,197,3,Potter-Thomas School,-75.144686,39.99458799999998
2.02339E+11,Black (Non-Hispanic),Male,Nonfatal,12/29/2023 0:15,No,16,GERMANTOWN AVE,4400,19144,8,39,Nicetown-Tioga,198,3,Edward T. Steel School,-75.158647,40.022397999999995
2.02308E+11,Black (Non-Hispanic),Male,Fatal,12/28/2023 23:26,No,33,WOODHAVEN RD,3500,19154,10,8,Torresdale North,170,5,Stephen Decatur School,-74.978305,40.09375300000002
2.02312E+11,Black (Non-Hispanic),Male,Nonfatal,12/28/2023 13:30,No,21,S 61ST ST,1900,19142,2,12,Paschall-Kingsessing,191,8,Joseph W. Catharine School,-75.23355,39.93216300000001
2.02312E+11,Black (Non-Hispanic),Male,Fatal,12/28/2023 13:30,No,28,S 61ST ST,1900,19142,2,12,Paschall-Kingsessing,191,8,Joseph W. Catharine School,-75.23355,39.93216300000001
2.02322E+11,Hispanic (Black or White),Male,Fatal,12/28/2023 1:19,No,20,WESTMONT ST,2900,19121,5,22,Strawberry Mansion,195,3,Richard R. Wright School,-75.181367,39.988578
2.02312E+11,Black (Non-Hispanic),Male,Nonfatal,12/27/2023 0:04,Yes,45,S 68TH ST,3000,19142,2,12,Eastwick-Elmwood,185,8,John M. Patterson School,-75.228252,39.914364
2.02319E+11,Black (Non-Hispanic),Male,Nonfatal,12/26/2023 22:50,Yes,26,MASTER ST,5500,19131,4,19,Haddington-Overbrook,192,7,Universal Charter School at Bluford,-75.232027,39.973581
2.02302E+11,Black (Non-Hispanic),Male,Nonfatal,12/26/2023 17:38,No,36,RISING SUN AVE,5800,19120,9,2,Lawndale-Crescentville,203,2,Benjamin Franklin School,-75.103747,40.043313000000026
2.02324E+11,Hispanic (Black or White),Male,Nonfatal,12/25/2023 15:43,No,47,CASTOR AVE,3600,19134,1,24,Juniata Park-Harrowgate,177,5,John H. Webster School,-75.100099,40.00101899999999
2.02326E+11,Black (Non-Hispanic),Male,Nonfatal,12/24/2023 23:58,No,28,W HUNTINGDON ST,700,19133,5,26,Northern Liberties-West Kensington,197,3,John F. Hartranft School,-75.144206,39.99096599999999
2.02325E+11,Hispanic (Black or White),Male,Nonfatal,12/24/2023 4:35,No,22,E ERIE AVE,100,19134,7,25,Hunting Park-Fairhill,180,2,Clara Barton School,-75.125462,40.00740700000001
2.02318E+11,Black (Non-Hispanic),Male,Nonfatal,12/23/2023 16:43,No,27,SPRUCE ST,5200,19139,3,18,Cobbs Creek,190,8,Global Leadership Academy at Huey,-75.226564,39.954728
2.02324E+11,Hispanic (Black or White),Female,Fatal,12/23/2023 12:38,Yes,35,HARTVILLE ST,3100,19134,7,24,Upper Kensington,180,2,Lewis Elkin School,-75.12026,39.995889999999996
2.02312E+11,Black (Non-Hispanic),Male,Nonfatal,12/22/2023 20:41,No,38,BARTRAM DR,5400,19143,3,12,Paschall-Kingsessing,191,8,Benjamin B. Comegys School,-75.21502,39.93135500000001
2.02322E+11,Black (Non-Hispanic),Male,Nonfatal,12/22/2023 19:46,No,27,W OXFORD ST,1800,19121,5,22,Sharswood-Stanton,181,3,General George G. Meade School,-75.164989,39.97819800000001
2.02315E+11,Black (Non-Hispanic),Male,Nonfatal,12/22/2023 17:58,Yes,26,TORRESDALE AVE,4200,19124,7,15,Frankford,179,2,Allen M. Stearne School,-75.084895,40.00812
2.02319E+11,Black (Non-Hispanic),Male,Nonfatal,12/22/2023 12:50,Yes,30,N 56TH ST,0,19139,4,19,Haddington-Overbrook,190,7,John Barry School,-75.23282,39.961463
2.02318E+11,Black (Non-Hispanic),Male,Nonfatal,12/21/2023 10:53,No,40,MARKET ST,3000,19104,3,18,University City,188,7,Samuel Powel School,-75.184727,39.954932
2.02319E+11,Black (Non-Hispanic),Male,Fatal,12/21/2023 4:33,No,22,UPLAND WAY,5600,19131,4,19,Overbrook Park-Wynnefield Heights,192,7,Mastery Charter School at Mann,-75.235414,39.984243000000006
2.02317E+11,Black (Non-Hispanic),Male,Fatal,12/20/2023 21:45,No,58,WHARTON ST,1700,19146,2,17,Schuylkill-Point Breeze,186,8,George W. Childs School,-75.172894,39.934876999999986
2.02317E+11,Black (Non-Hispanic),Male,Nonfatal,12/20/2023 20:41,No,29,S CHADWICK ST,1300,19146,2,17,Southwark-Bella Vista,186,8,George W. Childs School,-75.171887,39.93466299999999
2.02312E+11,Black (Non-Hispanic),Male,Nonfatal,12/20/2023 19:08,Yes,22,CHELWYNDE AVE,7300,19153,2,12,Eastwick-Elmwood,185,8,John M. Patterson School,-75.240306,39.911426999999996
2.02312E+11,White (Non-Hispanic),Female,Nonfatal,12/20/2023 19:08,Yes,23,CHELWYNDE AVE,7300,19153,2,12,Eastwick-Elmwood,185,8,John M. Patterson School,-75.240306,39.911426999999996
2.02312E+11,Black (Non-Hispanic),Male,Nonfatal,12/20/2023 19:08,Yes,17,CHELWYNDE AVE,7300,19153,2,12,Eastwick-Elmwood,185,8,John M. Patterson School,-75.240306,39.911426999999996
2.02312E+11,Black (Non-Hispanic),Male,Nonfatal,12/20/2023 19:08,Yes,,CHELWYNDE AVE,7300,19153,2,12,Eastwick-Elmwood,185,8,John M. Patterson School,-75.240306,39.911426999999996
2.02315E+11,Black (Non-Hispanic),Female,Nonfatal,12/20/2023 18:03,Yes,28,OXFORD AVE,5200,19124,7,15,Frankford,179,2,The Philadelphia Charter School for Arts and Sciences,-75.08485,40.02650599999999
2.02315E+11,Black (Non-Hispanic),Male,Nonfatal,12/20/2023 18:03,Yes,20,OXFORD AVE,5200,19124,7,15,Frankford,179,2,The Philadelphia Charter School for Arts and Sciences,-75.08485,40.02650599999999
2.02315E+11,Hispanic (Black or White),Male,Fatal,12/20/2023 18:03,Yes,19,OXFORD AVE,5200,19124,7,15,Frankford,179,2,The Philadelphia Charter School for Arts and Sciences,-75.08485,40.02650599999999
2.02335E+11,Black (Non-Hispanic),Male,Nonfatal,12/19/2023 19:03,Yes,19,W LAVEER ST,2000,19138,8,35,Ogontz,201,4,Joseph Pennell School,-75.153317,40.049463999999986
2.02318E+11,Black (Non-Hispanic),Male,Nonfatal,12/19/2023 18:41,Yes,42,BALTIMORE AVE,5300,19143,3,18,Cobbs Creek,188,8,Avery D. Harrington School,-75.230556,39.94812800000001
2.02325E+11,Hispanic (Black or White),Male,Nonfatal,12/19/2023 4:25,No,28,N LEE ST,3200,19140,7,25,Hunting Park-Fairhill,180,2,William Cramp School,-75.128525,39.999048
2.02318E+11,Black (Non-Hispanic),Female,Nonfatal,12/16/2023 23:30,No,30,MARKET ST,6100,19139,3,18,Haddington-Overbrook,192,7,John Barry School,-75.244696,39.962454
2.02324E+11,White (Non-Hispanic),Male,Nonfatal,12/16/2023 15:15,No,60,E GLENWOOD AVE,2000,19124,1,24,Juniata Park-Harrowgate,180,5,John H. Webster School,-75.099438,40.000760000000014
2.02301E+11,Black (Non-Hispanic),Male,Nonfatal,12/15/2023 16:45,No,36,MIFFLIN ST,1600,19145,2,1,South Broad-Girard Estates,186,1,Stephen Girard School,-75.172696,39.927268999999995
2.02319E+11,Black (Non-Hispanic),Male,Nonfatal,12/15/2023 2:56,Yes,32,N FRAZIER ST,0,19139,4,19,Haddington-Overbrook,190,7,John Barry School,-75.234197,39.96175399999999
2.02326E+11,Black (Non-Hispanic),Male,Nonfatal,12/14/2023 19:41,No,21,N LEITHGOW ST,2100,19122,7,26,Northern Liberties-West Kensington,197,2,William McKinley School,-75.140844,39.98268899999999
2.02325E+11,Hispanic (Black or White),Male,Fatal,12/14/2023 19:14,No,56,BOUDINOT ST,4900,19120,7,25,Olney-Feltonville,197,3,Clara Barton School,-75.11696,40.024114000000004
2.02322E+11,Black (Non-Hispanic),Male,Nonfatal,12/12/2023 16:39,No,41,W LEHIGH AVE,2900,19132,5,22,Strawberry Mansion,195,7,Dr. Ethel Allen School,-75.179739,39.99698000000001
2.02314E+11,Black (Non-Hispanic),Male,Nonfatal,12/12/2023 16:22,No,26,DALLAS ST,1800,19126,9,14,West Oak Lane-Cedarbrook,203,4,William Rowen School,-75.146211,40.062909
2.02322E+11,Black (Non-Hispanic),Male,Fatal,12/12/2023 13:50,Yes,33,N CROSKEY ST,1900,19121,5,22,Strawberry Mansion,195,3,Mastery Charter School at Douglass,-75.171023,39.98384299999997
2.02314E+11,Black (Non-Hispanic),Male,Nonfatal,12/11/2023 22:49,Yes,20,CHEW AVE,6300,19138,8,14,East Mt. Airy,200,4,Eleanor C. Emlen School,-75.173322,40.050695
2.02303E+11,Asian,Male,Nonfatal,12/11/2023 19:13,Yes,25,S 8TH ST,2500,19148,1,3,Snyder-Whitman,184,1,D. Newlin Fell School,-75.161118,39.917755
2.02303E+11,Black (Non-Hispanic),Male,Nonfatal,12/11/2023 19:13,Yes,27,S 8TH ST,2500,19148,1,3,Snyder-Whitman,184,1,D. Newlin Fell School,-75.161118,39.917755
2.02325E+11,Black (Non-Hispanic),Male,Fatal,12/11/2023 17:56,No,31,W ONTARIO ST,1000,19140,5,25,Hunting Park-Fairhill,197,3,Mary M. Bethune School,-75.145905,40.00368200000002
2.02302E+11,Black (Non-Hispanic),Male,Nonfatal,12/10/2023 13:08,Yes,30,SOUDER ST,6700,19149,6,2,Oxford Circle,202,5,Gilbert Spruance School,-75.069828,40.04217900000002
2.02322E+11,Black (Non-Hispanic),Male,Nonfatal,12/10/2023 11:18,Yes,57,W LEHIGH AVE,2600,19132,5,22,Strawberry Mansion,195,7,Dr. Ethel Allen School,-75.174948,39.99650500000001
2.02339E+11,Black (Non-Hispanic),Male,Nonfatal,12/10/2023 10:56,No,23,W SCHOOL HOUSE LN,200,19144,8,39,East Falls-Westside,198,3,John B. Kelly School,-75.177221,40.029903
2.02302E+11,White (Non-Hispanic),Male,Nonfatal,12/10/2023 4:59,No,28,CASTOR AVE,6700,19111,9,2,Oxford Circle,202,2,J. Hampton Moore School,-75.0731,40.04406899999999
2.02322E+11,Black (Non-Hispanic),Male,Fatal,12/10/2023 4:12,No,32,N CHADWICK ST,2200,19132,5,22,Sharswood-Stanton,197,3,Tanner G. Duckrey School,-75.160503,39.986873999999986
2.02322E+11,Black (Non-Hispanic),Male,Nonfatal,12/10/2023 4:12,No,36,N CHADWICK ST,2200,19132,5,22,Sharswood-Stanton,197,3,Tanner G. Duckrey School,-75.160503,39.986873999999986
2.02322E+11,Black (Non-Hispanic),Male,Nonfatal,12/10/2023 4:12,No,45,N CHADWICK ST,2200,19132,5,22,Sharswood-Stanton,197,3,Tanner G. Duckrey School,-75.160503,39.986873999999986
2.02322E+11,Black (Non-Hispanic),Female,Fatal,12/10/2023 4:12,No,28,N CHADWICK ST,2200,19132,5,22,Sharswood-Stanton,197,3,Tanner G. Duckrey School,-75.160503,39.986873999999986
2.02308E+11,White (Non-Hispanic),Male,Nonfatal,12/10/2023 2:31,Yes,32,FRANKFORD AVE,8000,19136,6,8,Mayfair-Holmesburg,172,2,Joseph H. Brown School,-75.028174,40.041474
2.02308E+11,White (Non-Hispanic),Male,Nonfatal,12/10/2023 2:31,Yes,31,FRANKFORD AVE,8000,19136,6,8,Mayfair-Holmesburg,172,2,Joseph H. Brown School,-75.028174,40.041474
2.02335E+11,Black (Non-Hispanic),Male,Fatal,12/9/2023 19:38,No,17,N 5TH ST,5300,19120,8,35,Olney-Feltonville,201,3,Thurgood Marshall School,-75.131556,40.032064999999996
2.02335E+11,Black (Non-Hispanic),Male,Nonfatal,12/9/2023 19:38,No,17,N 5TH ST,5300,19120,8,35,Olney-Feltonville,201,3,Thurgood Marshall School,-75.131556,40.032064999999996
2.02312E+11,Black (Non-Hispanic),Male,Nonfatal,12/9/2023 18:29,No,38,ELMWOOD AVE,5700,19143,2,12,Paschall-Kingsessing,191,8,Thomas G. Morton School,-75.219396,39.92998399999999
2.02325E+11,Hispanic (Black or White),Male,Nonfatal,12/9/2023 15:59,No,35,N LAWRENCE ST,2900,19133,7,25,Hunting Park-Fairhill,197,2,Julia de Burgos School,-75.138615,39.995151
2.02325E+11,Hispanic (Black or White),Male,Nonfatal,12/9/2023 4:43,No,23,E ALLEGHENY AVE,100,19140,7,25,Hunting Park-Fairhill,180,2,William Cramp School,-75.129074,39.998611000000004
2.02325E+11,Hispanic (Black or White),Male,Nonfatal,12/9/2023 4:43,No,29,E ALLEGHENY AVE,100,19140,7,25,Hunting Park-Fairhill,180,2,William Cramp School,-75.129074,39.998611000000004
2.02325E+11,Black (Non-Hispanic),Male,Nonfatal,12/8/2023 23:55,Yes,34,W LEHIGH AVE,100,19133,7,25,Hunting Park-Fairhill,180,2,Isaac A. Sheppard School,-75.131181,39.991049000000004
2.02312E+11,Black (Non-Hispanic),Male,Nonfatal,12/8/2023 22:51,No,33,S 62ND ST,2900,19142,3,12,Eastwick-Elmwood,185,8,Thomas G. Morton School,-75.22228,39.921978
2.02325E+11,Black (Non-Hispanic),Male,Fatal,12/8/2023 16:56,Yes,36,N 8TH ST,4300,19140,7,25,Hunting Park-Fairhill,197,3,Cayuga School,-75.139604,40.01816600000001
2.02339E+11,Black (Non-Hispanic),Male,Fatal,12/7/2023 20:25,No,22,W CLEARFIELD ST,2900,19132,4,39,Nicetown-Tioga,198,7,E. Washington Rhodes School,-75.178032,40.003168
2.02322E+11,Black (Non-Hispanic),Male,Nonfatal,12/6/2023 18:25,No,37,N 22ND ST,2100,19121,5,22,Strawberry Mansion,181,3,William Dick School,-75.169356,39.987521
2.02325E+11,Hispanic (Black or White),Male,Fatal,12/6/2023 16:45,Yes,34,W CAMBRIA ST,100,19133,7,25,Hunting Park-Fairhill,180,2,Julia de Burgos School,-75.13332,39.994456
2.02325E+11,Hispanic (Black or White),Male,Nonfatal,12/6/2023 16:45,Yes,61,W CAMBRIA ST,100,19133,7,25,Hunting Park-Fairhill,180,2,Julia de Burgos School,-75.13332,39.994456
2.02325E+11,White (Non-Hispanic),Male,Nonfatal,12/6/2023 16:45,Yes,21,W CAMBRIA ST,100,19133,7,25,Hunting Park-Fairhill,180,2,Julia de Burgos School,-75.13332,39.994456
2.02325E+11,Hispanic (Black or White),Male,Nonfatal,12/6/2023 14:30,Yes,25,N 5TH ST,4100,19140,7,25,Hunting Park-Fairhill,197,3,Alexander K. McClure School,-75.135305,40.01490100000001
2.02325E+11,Hispanic (Black or White),Male,Nonfatal,12/6/2023 14:30,Yes,19,N 5TH ST,4100,19140,7,25,Hunting Park-Fairhill,197,3,Alexander K. McClure School,-75.135305,40.01490100000001
2.02319E+11,Black (Non-Hispanic),Male,Nonfatal,12/4/2023 21:37,No,55,N 52ND ST,0,19139,3,19,Haddington-Overbrook,190,7,Alain Locke School,-75.22476,39.960974
2.02319E+11,Black (Non-Hispanic),Male,Nonfatal,12/4/2023 21:37,No,28,POPLAR ST,5400,19131,4,19,Haddington-Overbrook,192,7,Universal Charter School at Daroff,-75.228615,39.970141999999996
2.02314E+11,Black (Non-Hispanic),Male,Fatal,12/4/2023 0:48,Yes,44,WOOSTER RD,2200,19138,9,14,West Oak Lane-Cedarbrook,200,4,Samuel Pennypacker School,-75.154477,40.06625400000002
2.02314E+11,Black (Non-Hispanic),Female,Nonfatal,12/4/2023 0:48,Yes,45,WOOSTER RD,2200,19138,9,14,West Oak Lane-Cedarbrook,200,4,Samuel Pennypacker School,-75.154477,40.06625400000002
2.02322E+11,Black (Non-Hispanic),Male,Nonfatal,12/3/2023 23:24,No,39,N LAMBERT ST,2300,19132,5,22,Strawberry Mansion,181,3,William Dick School,-75.166345,39.990415999999996
2.02302E+11,White (Non-Hispanic),Male,Nonfatal,12/3/2023 9:05,Yes,34,SUMMERDALE AVE,4900,19124,9,2,Lawndale-Crescentville,179,2,Laura H. Carnell School,-75.09612,40.027616
2.02316E+11,Black (Non-Hispanic),Male,Fatal,12/3/2023 5:24,No,40,FARSON ST,0,19139,3,16,Haddington-Overbrook,190,7,Alain Locke School,-75.221617,39.960818999999994
2.02317E+11,Black (Non-Hispanic),Male,Fatal,12/2/2023 18:18,No,47,S NAPA ST,1500,19146,2,17,Grays Ferry-Passyunk,186,8,Universal Charter School at Alcorn,-75.196261,39.935286000000005
2.02318E+11,Black (Non-Hispanic),Male,Nonfatal,12/2/2023 17:10,No,26,S 60TH ST,1100,19143,3,18,Cobbs Creek,191,8,Add B. Anderson School,-75.244323,39.946074
2.02302E+11,Black (Non-Hispanic),Male,Fatal,12/2/2023 0:37,Yes,19,E GODFREY AVE,500,19120,9,2,Lawndale-Crescentville,203,2,Universal Charter School at Creighton,-75.106554,40.041140000000006
2.02322E+11,Black (Non-Hispanic),Male,Fatal,12/1/2023 19:05,No,31,RIDGE AVE,2900,19121,5,22,Strawberry Mansion,195,3,James G. Blaine School,-75.181993,39.987653
2.02322E+11,Black (Non-Hispanic),Male,Nonfatal,11/30/2023 17:26,No,32,W YORK ST,1400,19132,5,22,Sharswood-Stanton,197,3,Tanner G. Duckrey School,-75.156411,39.989470999999995
2.02326E+11,Black (Non-Hispanic),Male,Fatal,11/29/2023 16:48,No,29,N 7TH ST,2200,19133,5,26,Poplar-Temple,181,3,John F. Hartranft School,-75.145475,39.98501399999999
2.02326E+11,Black (Non-Hispanic),Male,Fatal,11/29/2023 16:28,No,32,N 7TH ST,2200,19133,5,26,Poplar-Temple,181,3,John F. Hartranft School,-75.145475,39.98501399999999
2.02324E+11,White (Non-Hispanic),Male,Nonfatal,11/29/2023 16:12,No,32,WEIKEL ST,3500,19134,1,24,Juniata Park-Harrowgate,180,5,John H. Webster School,-75.098646,39.99499799999999
2.02335E+11,Black (Non-Hispanic),Male,Nonfatal,11/29/2023 11:25,Yes,31,67TH AVE,1500,19126,9,35,Ogontz,203,4,Prince Hall School,-75.143123,40.055349000000014
2.02325E+11,Hispanic (Black or White),Male,Nonfatal,11/27/2023 18:58,No,27,W BRISTOL ST,800,19140,7,25,Hunting Park-Fairhill,197,3,Alexander K. McClure School,-75.139793,40.01727699999998
2.02325E+11,Hispanic (Black or White),Male,Nonfatal,11/27/2023 18:16,No,23,N 7TH ST,3800,19140,7,25,Hunting Park-Fairhill,197,3,Bayard Taylor School,-75.140135,40.009454000000005
2.02325E+11,Black (Non-Hispanic),Male,Nonfatal,11/27/2023 14:23,Yes,24,N 6TH ST,4400,19140,7,25,Hunting Park-Fairhill,197,3,Cayuga School,-75.136842,40.01847699999998
2.02325E+11,Black (Non-Hispanic),Male,Nonfatal,11/26/2023 9:55,No,23,N FRANKLIN ST,4100,19140,7,25,Hunting Park-Fairhill,197,3,Alexander K. McClure School,-75.139826,40.01404399999999
2.02326E+11,Black (Non-Hispanic),Male,Nonfatal,11/25/2023 21:43,No,68,N 9TH ST,2400,19133,5,26,Poplar-Temple,181,3,John F. Hartranft School,-75.147112,39.98841799999999
2.02324E+11,Black (Non-Hispanic),Male,Fatal,11/25/2023 20:36,No,58,ORMOND ST,4000,19124,7,24,Juniata Park-Harrowgate,180,2,Francis Hopkinson School,-75.097195,40.00816900000001
2.02324E+11,Black (Non-Hispanic),Male,Fatal,11/25/2023 20:36,No,61,ORMOND ST,4000,19124,7,24,Juniata Park-Harrowgate,180,2,Francis Hopkinson School,-75.097195,40.00816900000001
2.02312E+11,Black (Non-Hispanic),Male,Nonfatal,11/25/2023 19:51,No,16,S 52ND ST,900,19143,3,12,Paschall-Kingsessing,188,8,Avery D. Harrington School,-75.224557,39.945302999999996
2.02312E+11,Black (Non-Hispanic),Male,Nonfatal,11/25/2023 19:51,No,17,S 52ND ST,900,19143,3,12,Paschall-Kingsessing,188,8,Avery D. Harrington School,-75.224557,39.945302999999996
2.02325E+11,Black (Non-Hispanic),Male,Nonfatal,11/24/2023 13:52,Yes,30,N 13TH ST,2700,19132,5,25,Hunting Park-Fairhill,181,3,Mastery Charter School at Clymer,-75.152577,39.994794000000006
2.02339E+11,Black (Non-Hispanic),Male,Nonfatal,11/24/2023 12:43,No,22,GREENE ST,5100,19144,8,39,Germantown,198,3,John B. Kelly School,-75.16881,40.02944400000001
2.02325E+11,Hispanic (Black or White),Female,Nonfatal,11/24/2023 10:35,No,79,N 3RD ST,3400,19140,7,25,Hunting Park-Fairhill,197,2,Honorable Luis Munoz-Marin School,-75.134812,40.00311399999999
2.02312E+11,Black (Non-Hispanic),Male,Fatal,11/24/2023 2:50,No,45,KINGSESSING AVE,5600,19143,3,12,Paschall-Kingsessing,191,8,S. Weir Mitchell School,-75.224644,39.936503
2.02339E+11,Black (Non-Hispanic),Male,Fatal,11/23/2023 17:54,No,26,ARCHER ST,3800,19140,8,39,Nicetown-Tioga,198,3,Mastery Charter School at Cleveland,-75.160286,40.013281
2.02324E+11,Hispanic (Black or White),Male,Nonfatal,11/23/2023 12:00,No,42,REACH ST,3100,19134,7,24,Upper Kensington,180,2,Lewis Elkin School,-75.116306,39.995333
2.02335E+11,Black (Non-Hispanic),Male,Fatal,11/23/2023 11:49,Yes,31,OGONTZ AVE,6700,19126,9,35,Ogontz,203,4,Prince Hall School,-75.148999,40.057008
2.02322E+11,Black (Non-Hispanic),Male,Nonfatal,11/23/2023 7:47,No,59,EDGLEY ST,2300,19121,5,22,Strawberry Mansion,181,3,William Dick School,-75.17091,39.98720899999999
2.02308E+11,White (Non-Hispanic),Male,Nonfatal,11/23/2023 2:27,Yes,26,ASHTON RD,9000,19136,6,8,Torresdale South-Pennypack Park,174,5,Robert B. Pollock School,-75.022561,40.06246300000001
2.02326E+11,White (Non-Hispanic),Male,Nonfatal,11/23/2023 1:38,No,21,W WILDEY ST,0,19123,1,26,Northern Liberties-West Kensington,175,1,Alexander Adaire School,-75.135877,39.967144000000005
2.02319E+11,Black (Non-Hispanic),Male,Fatal,11/22/2023 19:53,No,20,HESTON ST,5200,19131,4,19,Overbrook Park-Wynnefield Heights,190,7,Edward Heston School,-75.225557,39.98013600000001
2.02335E+11,Black (Non-Hispanic),Male,Fatal,11/22/2023 16:21,No,42,W GODFREY AVE,2000,19138,8,35,Ogontz,201,4,Joseph Pennell School,-75.153589,40.048806000000006
2.02307E+11,Black (Non-Hispanic),Male,Nonfatal,11/22/2023 8:28,No,33,STRAHLE ST,2200,19152,10,7,Rhawnhurst-Fox Chase,174,5,Louis H. Farrell School,-75.047255,40.064135
2.02315E+11,Hispanic (Black or White),Male,Fatal,11/22/2023 8:15,Yes,45,WELLINGTON ST,3100,19149,6,15,Mayfair-Holmesburg,177,2,Mayfair School,-75.049171,40.03976599999999
2.02326E+11,Black (Non-Hispanic),Female,Fatal,11/22/2023 5:34,Yes,42,W NORRIS ST,700,19122,5,26,Poplar-Temple,181,3,William McKinley School,-75.146407,39.98182100000002
2.02325E+11,Hispanic (Black or White),Male,Nonfatal,11/21/2023 20:31,No,33,N FAIRHILL ST,3000,19140,7,25,Hunting Park-Fairhill,197,2,Honorable Luis Munoz-Marin School,-75.139858,40.00042699999999
2.02325E+11,Hispanic (Black or White),Male,Fatal,11/21/2023 20:31,No,38,N FAIRHILL ST,3000,19140,7,25,Hunting Park-Fairhill,197,2,Honorable Luis Munoz-Marin School,-75.139858,40.00042699999999
2.02325E+11,Hispanic (Black or White),Male,Fatal,11/21/2023 20:31,No,31,N FAIRHILL ST,3000,19140,7,25,Hunting Park-Fairhill,197,2,Honorable Luis Munoz-Marin School,-75.139858,40.00042699999999
2.02325E+11,Hispanic (Black or White),Male,Nonfatal,11/21/2023 20:31,No,30,N FAIRHILL ST,3000,19140,7,25,Hunting Park-Fairhill,197,2,Honorable Luis Munoz-Marin School,-75.139858,40.00042699999999
2.02325E+11,Hispanic (Black or White),Male,Nonfatal,11/21/2023 20:31,No,34,N FAIRHILL ST,3000,19140,7,25,Hunting Park-Fairhill,197,2,Honorable Luis Munoz-Marin School,-75.139858,40.00042699999999
2.02325E+11,Hispanic (Black or White),Male,Nonfatal,11/21/2023 20:31,No,33,N FAIRHILL ST,3000,19140,7,25,Hunting Park-Fairhill,197,2,Honorable Luis Munoz-Marin School,-75.139858,40.00042699999999
2.02325E+11,Hispanic (Black or White),Male,Nonfatal,11/21/2023 20:31,No,19,N FAIRHILL ST,3000,19140,7,25,Hunting Park-Fairhill,197,2,Honorable Luis Munoz-Marin School,-75.139858,40.00042699999999
2.02335E+11,Black (Non-Hispanic),Male,Nonfatal,11/21/2023 19:11,No,39,WYNCOTE AVE,6500,19138,8,35,Ogontz,201,4,Mastery Charter School at Pastorius,-75.1567,40.053199
2.02326E+11,White (Non-Hispanic),Female,Nonfatal,11/21/2023 16:46,Yes,41,SALMON ST,2600,19125,1,26,Richmond-Bridesburg,175,1,Richmond School,-75.11561,39.97621500000001
2.02326E+11,White (Non-Hispanic),Female,Nonfatal,11/21/2023 16:46,Yes,75,SALMON ST,2600,19125,1,26,Richmond-Bridesburg,175,1,Richmond School,-75.11561,39.97621500000001
2.02324E+11,Black (Non-Hispanic),Male,Nonfatal,11/21/2023 2:42,No,32,GAUL ST,3400,19134,1,24,Juniata Park-Harrowgate,177,5,Bridesburg School,-75.09974,39.989881
2.02302E+11,White (Non-Hispanic),Male,Nonfatal,11/20/2023 15:17,No,19,GRIFFITH ST,2100,19152,10,2,Rhawnhurst-Fox Chase,174,5,Rhawnhurst School,-75.054167,40.057889
2.02314E+11,Black (Non-Hispanic),Male,Fatal,11/19/2023 14:51,No,35,OGONTZ AVE,7600,19150,9,14,West Oak Lane-Cedarbrook,200,4,Samuel Pennypacker School,-75.157371,40.070311
2.02324E+11,Black (Non-Hispanic),Male,Nonfatal,11/19/2023 6:16,No,56,JASPER ST,3600,19134,1,24,Juniata Park-Harrowgate,180,5,John H. Webster School,-75.102883,40.00008199999997
2.02319E+11,Black (Non-Hispanic),Male,Nonfatal,11/18/2023 22:28,No,27,N 62ND ST,1300,19151,4,19,Haddington-Overbrook,192,7,Universal Charter School at Bluford,-75.242868,39.971657
2.02303E+11,Black (Non-Hispanic),Male,Nonfatal,11/18/2023 20:27,No,36,S 3RD ST,900,19147,1,3,Pennsport-Queen Village,182,1,George W. Nebinger School,-75.148725,39.936452
2.02325E+11,Black (Non-Hispanic),Female,Fatal,11/17/2023 21:58,No,36,W VENANGO ST,800,19140,7,25,Hunting Park-Fairhill,197,3,Bayard Taylor School,-75.142283,40.006432000000004
2.02326E+11,Hispanic (Black or White),Male,Nonfatal,11/17/2023 19:20,No,21,W DAUPHIN ST,400,19133,7,26,Northern Liberties-West Kensington,197,2,William McKinley School,-75.140864,39.98590900000001
2.02319E+11,Black (Non-Hispanic),Male,Nonfatal,11/16/2023 16:08,No,23,VINE ST,6100,19139,4,19,Haddington-Overbrook,192,7,John Barry School,-75.241923,39.96677799999999
2.02302E+11,Black (Non-Hispanic),Male,Nonfatal,11/16/2023 13:59,Yes,56,E ROOSEVELT BLVD,4000,19124,9,2,Lawndale-Crescentville,179,2,Universal Charter School at Creighton,-75.107092,40.02919099999998
2.02316E+11,Black (Non-Hispanic),Male,Nonfatal,11/15/2023 8:13,Yes,68,PARRISH ST,4000,19104,3,16,Mill Creek-Parkside,190,7,Belmont Charter School,-75.204558,39.96813099999999
2.02303E+11,Black (Non-Hispanic),Male,Nonfatal,11/14/2023 20:50,No,38,S BEULAH ST,2700,19148,1,3,Snyder-Whitman,184,1,D. Newlin Fell School,-75.160558,39.915252999999986
2.02303E+11,Black (Non-Hispanic),Male,Nonfatal,11/14/2023 20:50,No,37,S BEULAH ST,2700,19148,1,3,Snyder-Whitman,184,1,D. Newlin Fell School,-75.160558,39.915252999999986
2.02303E+11,Black (Non-Hispanic),Male,Nonfatal,11/14/2023 20:50,No,34,S BEULAH ST,2700,19148,1,3,Snyder-Whitman,184,1,D. Newlin Fell School,-75.160558,39.915252999999986
2.02325E+11,White (Non-Hispanic),Male,Nonfatal,11/14/2023 16:07,No,21,RISING SUN AVE,400,19140,7,25,Hunting Park-Fairhill,180,2,Bayard Taylor School,-75.13568,40.01061000000001
2.02335E+11,Black (Non-Hispanic),Male,Nonfatal,11/14/2023 2:33,No,17,N SYDENHAM ST,5300,19141,8,35,Logan,198,4,James Logan School,-75.148568,40.035325
2.02325E+11,Black (Non-Hispanic),Male,Nonfatal,11/13/2023 22:22,No,33,N 5TH ST,3300,19140,7,25,Hunting Park-Fairhill,197,2,Honorable Luis Munoz-Marin School,-75.138218,40.00145299999999
2.02326E+11,Black (Non-Hispanic),Male,Fatal,11/13/2023 19:47,No,28,E HAROLD ST,1900,19125,1,26,Lower Kensington,175,2,Henry A. Brown School,-75.125906,39.98791299999999
2.02326E+11,Black (Non-Hispanic),Male,Fatal,11/13/2023 9:49,No,25,N FRANKLIN ST,900,19123,5,26,Poplar-Temple,181,1,James R. Ludlow School,-75.149282,39.969103999999994
2.02315E+11,Hispanic (Black or White),Male,Nonfatal,11/13/2023 0:20,Yes,33,DITMAN ST,4600,19124,7,15,Frankford,179,2,Allen M. Stearne School,-75.079811,40.011755000000015
2.02322E+11,Black (Non-Hispanic),Male,Fatal,11/12/2023 3:02,Yes,21,N 15TH ST,2100,19121,5,22,Sharswood-Stanton,181,3,Tanner G. Duckrey School,-75.157809,39.985825000000006
2.02325E+11,Black (Non-Hispanic),Male,Nonfatal,11/12/2023 1:31,Yes,35,N 5TH ST,3900,19140,7,25,Hunting Park-Fairhill,180,2,Alexander K. McClure School,-75.135901,40.01151
2.02326E+11,Black (Non-Hispanic),Male,Nonfatal,11/11/2023 23:02,No,25,N MARSHALL ST,900,19123,5,26,Poplar-Temple,181,1,James R. Ludlow School,-75.147471,39.969976
2.02326E+11,Black (Non-Hispanic),Male,Nonfatal,11/11/2023 23:02,No,27,N MARSHALL ST,900,19123,5,26,Poplar-Temple,181,1,James R. Ludlow School,-75.147471,39.969976
2.02303E+11,White (Non-Hispanic),Male,Nonfatal,11/11/2023 22:07,No,29,S 7TH ST,700,19147,1,3,Pennsport-Queen Village,182,1,William M. Meredith School,-75.154409,39.93977699999999
2.02303E+11,White (Non-Hispanic),Male,Nonfatal,11/11/2023 22:07,No,26,S 7TH ST,700,19147,1,3,Pennsport-Queen Village,182,1,William M. Meredith School,-75.154409,39.93977699999999
2.02316E+11,Black (Non-Hispanic),Female,Nonfatal,11/11/2023 19:28,Yes,23,MOUNT VERNON ST,3400,19104,3,16,Mill Creek-Parkside,195,7,Morton McMichael School,-75.191785,39.964669
2.02316E+11,Black (Non-Hispanic),Male,Nonfatal,11/11/2023 19:28,Yes,23,MOUNT VERNON ST,3400,19104,3,16,Mill Creek-Parkside,195,7,Morton McMichael School,-75.191785,39.964669
2.02324E+11,Black (Non-Hispanic),Male,Fatal,11/10/2023 11:34,No,,CASTOR AVE,2100,19134,1,24,Juniata Park-Harrowgate,180,5,John H. Webster School,-75.097933,39.99845899999999
2.02314E+11,Black (Non-Hispanic),Male,Nonfatal,11/10/2023 10:54,Yes,18,E WOODLAWN ST,900,19138,8,14,Germantown,198,4,Mastery Charter School at Pastorius,-75.162034,40.04645399999998
2.02324E+11,Hispanic (Black or White),Male,Nonfatal,11/10/2023 1:56,No,17,E LIPPINCOTT ST,100,19134,7,24,Hunting Park-Fairhill,180,2,Lewis Elkin School,-75.128749,39.99757099999998
2.02305E+11,Black (Non-Hispanic),Female,Nonfatal,11/8/2023 0:30,Yes,24,SILVERWOOD ST,4500,19127,4,5,Roxborough-Manayunk,194,7,James Dobson School,-75.225134,40.030708999999995
2.02305E+11,Black (Non-Hispanic),Male,Nonfatal,11/8/2023 0:30,Yes,25,SILVERWOOD ST,4500,19127,4,5,Roxborough-Manayunk,194,7,James Dobson School,-75.225024,40.030561000000006
2.02319E+11,Black (Non-Hispanic),Female,Nonfatal,11/7/2023 16:48,Yes,40,DIAMOND ST,5300,19131,4,19,Overbrook Park-Wynnefield Heights,192,7,Mastery Charter School at Mann,-75.231137,39.98854699999999
2.02324E+11,Hispanic (Black or White),Male,Nonfatal,11/7/2023 2:09,No,28,E INDIANA AVE,500,19134,7,24,Upper Kensington,180,2,Lewis Elkin School,-75.120179,39.99435899999999
2.02324E+11,Black (Non-Hispanic),Male,Nonfatal,11/6/2023 16:26,No,18,E SCHILLER ST,1800,19134,1,24,Juniata Park-Harrowgate,180,5,John H. Webster School,-75.106565,39.99844900000001
2.02316E+11,Black (Non-Hispanic),Male,Fatal,11/5/2023 21:43,No,53,OGDEN ST,4900,19139,3,16,Mill Creek-Parkside,190,7,James Rhoads School,-75.220051,39.96779599999999
2.02335E+11,Black (Non-Hispanic),Male,Nonfatal,11/5/2023 20:08,No,18,N BROAD ST,6800,19126,9,35,Oak Lane - Fernrock,203,4,Ellwood School,-75.140928,40.056824000000006
2.02324E+11,White (Non-Hispanic),Male,Nonfatal,11/5/2023 18:15,No,65,E AUBURN ST,2700,19134,1,24,Richmond-Bridesburg,177,1,Richmond School,-75.109929,39.979398
2.02335E+11,Black (Non-Hispanic),Male,Nonfatal,11/5/2023 16:49,No,29,STENTON AVE,1600,19141,8,35,Ogontz,201,4,Prince Hall School,-75.145967,40.04914400000002
2.02322E+11,Black (Non-Hispanic),Male,Nonfatal,11/5/2023 15:47,No,30,W CUMBERLAND ST,3200,19132,5,22,Strawberry Mansion,195,7,Dr. Ethel Allen School,-75.184093,39.99457900000001
2.02322E+11,Black (Non-Hispanic),Male,Nonfatal,11/5/2023 15:47,No,33,W CUMBERLAND ST,3200,19132,5,22,Strawberry Mansion,195,7,Dr. Ethel Allen School,-75.184093,39.99457900000001
2.02322E+11,Black (Non-Hispanic),Male,Nonfatal,11/5/2023 14:59,Yes,35,N 31ST ST,1700,19121,5,22,Strawberry Mansion,195,3,James G. Blaine School,-75.184831,39.983312999999995
2.02325E+11,Black (Non-Hispanic),Male,Nonfatal,11/5/2023 4:26,No,31,E ALLEGHENY AVE,100,19140,7,25,Hunting Park-Fairhill,180,2,William Cramp School,-75.129074,39.998611000000004
2.02308E+11,Black (Non-Hispanic),Male,Nonfatal,11/5/2023 1:48,No,31,LAMAR PL,3400,19154,10,8,Torresdale North,170,5,Stephen Decatur School,-74.969952,40.098264
2.02322E+11,Black (Non-Hispanic),Male,Nonfatal,11/5/2023 1:13,No,52,W HUNTINGDON ST,1200,19133,5,22,Poplar-Temple,181,3,Mastery Charter School at Clymer,-75.151189,39.991869
2.02315E+11,Black (Non-Hispanic),Male,Nonfatal,11/4/2023 20:51,Yes,32,BRIDGE ST,1600,19124,7,15,Frankford,179,2,Mastery Charter School at Smedley,-75.076819,40.02322199999999
2.02308E+11,White (Non-Hispanic),Male,Nonfatal,11/4/2023 12:49,No,64,STEVENSON ST,3900,19114,10,8,Torresdale North,174,5,John Hancock Demonstration School,-74.989307,40.06253000000002
2.02335E+11,Hispanic (Black or White),Male,Nonfatal,11/4/2023 3:17,No,21,W DUNCANNON AVE,100,19120,9,35,Olney-Feltonville,179,3,Andrew J. Morrison School,-75.126427,40.02981199999998
2.02319E+11,Black (Non-Hispanic),Male,Fatal,11/4/2023 0:17,No,26,N GROSS ST,200,19139,4,19,Haddington-Overbrook,192,7,Lewis C. Cassidy Academics Plus School,-75.247197,39.96720299999999
2.02322E+11,Black (Non-Hispanic),Male,Nonfatal,11/3/2023 22:28,No,23,N STANLEY ST,2600,19132,5,22,Strawberry Mansion,195,7,Dr. Ethel Allen School,-75.181637,39.99617299999999
2.02316E+11,Black (Non-Hispanic),Male,Nonfatal,11/3/2023 19:24,No,31,N FALLON ST,800,19139,3,16,Mill Creek-Parkside,190,7,James Rhoads School,-75.217794,39.968112000000005
2.02319E+11,Black (Non-Hispanic),Male,Fatal,11/3/2023 19:11,No,29,CALLOWHILL ST,6300,19151,4,19,Haddington-Overbrook,192,7,Lewis C. Cassidy Academics Plus School,-75.246517,39.96897500000002
2.02325E+11,Black (Non-Hispanic),Female,Nonfatal,11/2/2023 22:21,No,44,W SOMERSET ST,700,19133,5,25,Hunting Park-Fairhill,197,3,Julia de Burgos School,-75.144174,39.99399799999999
2.02314E+11,Black (Non-Hispanic),Male,Nonfatal,11/2/2023 17:38,Yes,53,E STAFFORD ST,600,19144,8,14,Germantown,201,4,Theodore Roosevelt School,-75.167486,40.04405799999999
2.02324E+11,White (Non-Hispanic),Male,Nonfatal,11/1/2023 21:57,No,34,HART LN,1800,19134,7,24,Upper Kensington,175,1,Frances E. Willard School,-75.121538,39.991962
2.02318E+11,Black (Non-Hispanic),Female,Nonfatal,11/1/2023 19:00,No,52,SPRUCE ST,5700,19139,3,18,Cobbs Creek,191,8,Andrew Hamilton School,-75.237488,39.95596199999999
2.02318E+11,Black (Non-Hispanic),Female,Nonfatal,11/1/2023 19:00,No,16,SPRUCE ST,5700,19139,3,18,Cobbs Creek,191,8,Andrew Hamilton School,-75.237488,39.95596199999999
2.02315E+11,Hispanic (Black or White),Male,Nonfatal,11/1/2023 17:44,No,44,TACONY ST,4600,19137,6,15,Frankford,177,5,James J. Sullivan School,-75.076583,40.00758600000001
2.02324E+11,White (Non-Hispanic),Male,Nonfatal,10/31/2023 6:51,No,61,ROSEHILL ST,2800,19134,7,24,Upper Kensington,180,2,Lewis Elkin School,-75.12519,39.99224600000001
2.02312E+11,Black (Non-Hispanic),Male,Fatal,10/30/2023 19:08,Yes,26,BALTIMORE AVE,5300,19143,3,12,Paschall-Kingsessing,188,8,Avery D. Harrington School,-75.232568,39.94755
2.02312E+11,Black (Non-Hispanic),Female,Nonfatal,10/30/2023 19:08,Yes,21,BALTIMORE AVE,5300,19143,3,12,Paschall-Kingsessing,188,8,Avery D. Harrington School,-75.232568,39.94755
2.02312E+11,Black (Non-Hispanic),Female,Nonfatal,10/30/2023 19:08,Yes,26,BALTIMORE AVE,5300,19143,3,12,Paschall-Kingsessing,188,8,Avery D. Harrington School,-75.232568,39.94755
2.02339E+11,Black (Non-Hispanic),Male,Nonfatal,10/29/2023 22:03,No,53,W LEHIGH AVE,2200,19132,8,39,Nicetown-Tioga,197,3,Thomas M. Peirce School,-75.167639,39.99564799999999
2.02319E+11,Black (Non-Hispanic),Male,Nonfatal,10/29/2023 19:23,Yes,24,N 64TH ST,800,19151,4,19,Haddington-Overbrook,192,7,Lewis C. Cassidy Academics Plus School,-75.2481,39.976358
2.02325E+11,Hispanic (Black or White),Male,Fatal,10/29/2023 8:26,No,46,E ELEANOR ST,300,19120,7,25,Olney-Feltonville,197,3,Clara Barton School,-75.118298,40.02313199999998
2.02316E+11,Black (Non-Hispanic),Female,Nonfatal,10/29/2023 1:23,No,15,N 47TH ST,700,19139,3,16,Mill Creek-Parkside,190,7,James Rhoads School,-75.2153,39.96583699999999
2.02312E+11,Black (Non-Hispanic),Female,Nonfatal,10/29/2023 0:01,Yes,58,S 54TH ST,1800,19143,3,12,Paschall-Kingsessing,186,8,Benjamin B. Comegys School,-75.218444,39.936005
2.02315E+11,White (Non-Hispanic),Female,Nonfatal,10/28/2023 21:08,Yes,47,HOMESTEAD ST,5000,19135,6,15,Wissinoming-Tacony,177,5,Henry W. Lawton School,-75.055574,40.01230200000001
2.02318E+11,Black (Non-Hispanic),Male,Nonfatal,10/28/2023 3:49,No,54,S SALFORD ST,0,19139,3,18,Cobbs Creek,191,8,John Barry School,-75.240135,39.961808000000005
2.02318E+11,Black (Non-Hispanic),Female,Nonfatal,10/28/2023 3:49,No,57,S SALFORD ST,0,19139,3,18,Cobbs Creek,191,8,John Barry School,-75.240135,39.961808000000005
2.02302E+11,Black (Non-Hispanic),Female,Nonfatal,10/28/2023 1:16,No,34,BLEIGH AVE,1000,19111,10,2,Rhawnhurst-Fox Chase,202,5,Kennedy C. Crossan School,-75.081841,40.062648999999986
2.02317E+11,Black (Non-Hispanic),Male,Fatal,10/28/2023 1:10,No,23,TASKER ST,2200,19145,2,17,Schuylkill-Point Breeze,186,8,Delaplaine McDaniel School,-75.18147,39.93216199999999
2.02322E+11,Black (Non-Hispanic),Male,Nonfatal,10/27/2023 23:32,No,25,W OXFORD ST,2800,19121,5,22,Strawberry Mansion,195,3,William D. Kelley School,-75.181094,39.98022799999999
2.02322E+11,Black (Non-Hispanic),Male,Nonfatal,10/27/2023 23:32,No,27,W OXFORD ST,2800,19121,5,22,Strawberry Mansion,195,3,William D. Kelley School,-75.181094,39.98022799999999
2.02317E+11,Black (Non-Hispanic),Male,Nonfatal,10/27/2023 20:11,No,33,S 22ND ST,1600,19145,2,17,Schuylkill-Point Breeze,186,8,Delaplaine McDaniel School,-75.181656,39.93136100000001
2.02303E+11,White (Non-Hispanic),Male,Nonfatal,10/27/2023 19:58,No,17,S 7TH ST,2200,19148,1,3,Snyder-Whitman,184,1,Francis S. Key School,-75.158636,39.920623
2.02303E+11,Black (Non-Hispanic),Male,Nonfatal,10/27/2023 19:58,No,21,S 7TH ST,2200,19148,1,3,Snyder-Whitman,184,1,Francis S. Key School,-75.158636,39.920623
2.02324E+11,White (Non-Hispanic),Male,Nonfatal,10/27/2023 2:38,No,21,E SOMERSET ST,1800,19134,7,24,Upper Kensington,175,1,Frances E. Willard School,-75.121779,39.99063599999998
2.02325E+11,Hispanic (Black or White),Male,Fatal,10/26/2023 14:15,No,31,E WYOMING AVE,400,19120,7,25,Hunting Park-Fairhill,197,3,Clara Barton School,-75.117127,40.020610000000005
2.02314E+11,White (Non-Hispanic),Male,Fatal,10/26/2023 10:27,Yes,48,GERMANTOWN AVE,4600,19144,8,39,East Falls-Westside,198,3,John B. Kelly School,-75.159935,40.025253000000006
2.02318E+11,Black (Non-Hispanic),Male,Nonfatal,10/25/2023 22:53,No,44,DELANCEY ST,5100,19143,3,18,Cobbs Creek,190,7,Global Leadership Academy at Huey,-75.225607,39.95396800000001
2.02312E+11,Black (Non-Hispanic),Male,Fatal,10/25/2023 22:40,No,28,S 58TH ST,1300,19143,3,12,Paschall-Kingsessing,188,8,Add B. Anderson School,-75.235202,39.94171300000001
2.02314E+11,Black (Non-Hispanic),Male,Nonfatal,10/25/2023 18:25,Yes,40,COLLOM ST,0,19144,8,14,Germantown,198,4,Mastery Charter School at Wister,-75.166122,40.030632
2.02335E+11,Black (Non-Hispanic),Male,Nonfatal,10/25/2023 16:05,Yes,35,W GODFREY AVE,700,19141,9,35,Oak Lane - Fernrock,201,3,Julia W. Howe School,-75.135418,40.046159
2.02314E+11,Black (Non-Hispanic),Male,Nonfatal,10/25/2023 13:57,Yes,19,E PHIL ELLENA ST,300,19119,8,14,East Mt. Airy,200,4,Eleanor C. Emlen School,-75.181277,40.05563800000001
2.02325E+11,Hispanic (Black or White),Male,Fatal,10/25/2023 0:57,Yes,35,N REESE ST,3900,19140,7,25,Hunting Park-Fairhill,197,3,Alexander K. McClure School,-75.136853,40.010728
2.02325E+11,Hispanic (Black or White),Male,Fatal,10/25/2023 0:57,Yes,42,N REESE ST,3900,19140,7,25,Hunting Park-Fairhill,197,3,Alexander K. McClure School,-75.137012,40.010748000000014
2.02319E+11,Black (Non-Hispanic),Male,Fatal,10/24/2023 20:58,No,37,N GROSS ST,300,19139,4,19,Haddington-Overbrook,192,7,Lewis C. Cassidy Academics Plus School,-75.246671,39.96854999999999
2.02316E+11,Black (Non-Hispanic),Male,Nonfatal,10/24/2023 20:26,No,29,N 52ND ST,0,19139,3,16,Haddington-Overbrook,190,7,Alain Locke School,-75.22448,39.961455999999984
2.02324E+11,Black (Non-Hispanic),Male,Nonfatal,10/24/2023 12:49,No,26,KENSINGTON AVE,3100,19134,7,24,Upper Kensington,180,2,Lewis Elkin School,-75.115506,39.995408999999995
2.02339E+11,Black (Non-Hispanic),Male,Nonfatal,10/24/2023 6:05,No,36,N 27TH ST,3100,19132,4,39,Nicetown-Tioga,194,7,E. Washington Rhodes School,-75.174246,40.002834000000014
2.02315E+11,Black (Non-Hispanic),Male,Nonfatal,10/23/2023 16:27,No,21,TULIP ST,5500,19124,6,15,Wissinoming-Tacony,179,5,James J. Sullivan School,-75.064927,40.013427
2.02312E+11,Black (Non-Hispanic),Male,Nonfatal,10/23/2023 15:31,No,12,S CECIL ST,2000,19143,2,12,Paschall-Kingsessing,191,8,S. Weir Mitchell School,-75.226465,39.934936000000015
2.02326E+11,Hispanic (Black or White),Male,Nonfatal,10/22/2023 21:36,No,30,PALETHORP ST,2100,19122,7,26,Northern Liberties-West Kensington,197,2,William H. Hunter School,-75.13629,39.98283899999999
2.02315E+11,Hispanic (Black or White),Male,Nonfatal,10/21/2023 23:23,No,38,TACONY ST,4800,19137,6,15,Frankford,177,5,James J. Sullivan School,-75.073356,40.00800599999999
2.02339E+11,Black (Non-Hispanic),Male,Fatal,10/21/2023 19:49,No,42,W TIOGA ST,1800,19140,8,39,Nicetown-Tioga,198,3,Mastery Charter School at Cleveland,-75.158395,40.006979999999984
2.02324E+11,White (Non-Hispanic),Male,Nonfatal,10/21/2023 13:46,No,29,E BIRCH ST,2100,19134,1,24,Upper Kensington,175,1,Frances E. Willard School,-75.11511,39.988156
2.02319E+11,Black (Non-Hispanic),Male,Fatal,10/21/2023 3:29,No,35,N SIMPSON ST,300,19139,4,19,Haddington-Overbrook,192,7,Lewis C. Cassidy Academics Plus School,-75.248793,39.968092999999996
2.02302E+11,Black (Non-Hispanic),Male,Nonfatal,10/20/2023 20:31,No,35,SUMMERDALE AVE,4900,19124,9,2,Lawndale-Crescentville,179,2,Universal Charter School at Creighton,-75.096217,40.027651
2.02325E+11,Hispanic (Black or White),Male,Nonfatal,10/19/2023 1:01,No,47,W HUNTING PARK AVE,700,19140,7,25,Hunting Park-Fairhill,197,3,Alexander K. McClure School,-75.138847,40.015507999999976
2.02318E+11,Black (Non-Hispanic),Male,Nonfatal,10/18/2023 21:05,No,45,MARKET ST,5100,19139,3,18,Cobbs Creek,188,7,Global Leadership Academy at Huey,-75.223461,39.959581999999976
2.02303E+11,Hispanic (Black or White),Male,Nonfatal,10/17/2023 18:59,No,25,S 5TH ST,900,19147,1,3,Pennsport-Queen Village,182,1,George W. Nebinger School,-75.152088,39.9361
2.02303E+11,Black (Non-Hispanic),Male,Fatal,10/17/2023 18:59,No,23,S 5TH ST,900,19147,1,3,Pennsport-Queen Village,182,1,George W. Nebinger School,-75.152088,39.9361
2.02312E+11,Black (Non-Hispanic),Male,Fatal,10/17/2023 18:48,Yes,31,CHESTER AVE,5400,19143,3,12,Paschall-Kingsessing,186,8,S. Weir Mitchell School,-75.224192,39.939131
2.02319E+11,Black (Non-Hispanic),Male,Fatal,10/17/2023 11:46,No,36,N 57TH ST,500,19131,4,19,Haddington-Overbrook,192,7,Universal Charter School at Daroff,-75.233862,39.968253
2.02326E+11,White (Non-Hispanic),Male,Nonfatal,10/17/2023 1:26,No,33,E DAUPHIN ST,2300,19125,1,26,Lower Kensington,175,2,Horatio B. Hackett School,-75.127341,39.979136
2.02325E+11,Hispanic (Black or White),Male,Fatal,10/16/2023 22:52,No,28,N LEITHGOW ST,2800,19133,7,25,Hunting Park-Fairhill,197,2,Julia de Burgos School,-75.13833,39.994216
2.02324E+11,Hispanic (Black or White),Male,Fatal,10/16/2023 19:42,No,31,G ST,3100,19134,7,24,Upper Kensington,180,2,Lewis Elkin School,-75.115732,39.99566200000002
2.02315E+11,Black (Non-Hispanic),Male,Nonfatal,10/16/2023 16:47,No,35,LEIPER ST,4600,19124,7,15,Frankford,179,2,John Marshall School,-75.087639,40.01662499999999
2.02315E+11,Black (Non-Hispanic),Male,Nonfatal,10/16/2023 16:47,No,46,LEIPER ST,4600,19124,7,15,Frankford,179,2,John Marshall School,-75.087639,40.01662499999999
2.02303E+11,Black (Non-Hispanic),Male,Nonfatal,10/15/2023 17:41,No,44,S 7TH ST,2200,19148,1,3,Snyder-Whitman,184,1,Francis S. Key School,-75.158636,39.920623
2.02303E+11,Black (Non-Hispanic),Male,Nonfatal,10/15/2023 17:41,No,36,S 7TH ST,2200,19148,1,3,Snyder-Whitman,184,1,Francis S. Key School,-75.158636,39.920623
2.02326E+11,Hispanic (Black or White),Male,Nonfatal,10/15/2023 3:39,No,23,W LEHIGH AVE,200,19133,7,26,Northern Liberties-West Kensington,197,2,William H. Hunter School,-75.135292,39.99134299999999
2.02319E+11,Black (Non-Hispanic),Male,Nonfatal,10/15/2023 3:15,No,15,N 50TH ST,1200,19131,3,19,Mill Creek-Parkside,190,7,Edward Heston School,-75.222725,39.97245699999999
2.02302E+11,Hispanic (Black or White),Male,Nonfatal,10/13/2023 23:53,No,38,LARGE ST,6600,19149,6,2,Oxford Circle,202,5,Gilbert Spruance School,-75.07244,40.04147800000002
2.02322E+11,Black (Non-Hispanic),Male,Nonfatal,10/13/2023 12:02,No,35,N 32ND ST,2500,19132,5,22,Strawberry Mansion,195,7,Dr. Ethel Allen School,-75.184057,39.99458799999998
2.02377E+11,Hispanic (Black or White),Male,Fatal,10/12/2023 23:06,Yes,50,,,19153,2,77,Airport-Navy Yard,185,1,Penrose School,-75.24584,39.87799100000001
2.02377E+11,Hispanic (Black or White),Male,Nonfatal,10/12/2023 23:06,Yes,60,,,19153,2,77,Airport-Navy Yard,185,1,Penrose School,-75.24584,39.87799100000001
2.02301E+11,Black (Non-Hispanic),Male,Nonfatal,10/12/2023 18:02,Yes,58,JACKSON ST,2600,19145,2,1,Grays Ferry-Passyunk,186,8,Stephen Girard School,-75.192122,39.92504799999999
2.02303E+11,Black (Non-Hispanic),Male,Nonfatal,10/12/2023 14:35,No,24,S CHRISTOPHER COLUMBUS BLVD,1900,19148,1,3,Airport-Navy Yard,184,1,George W. Sharswood School,-75.142238,39.921983
2.02335E+11,Black (Non-Hispanic),Male,Nonfatal,10/12/2023 8:54,No,56,W ASHDALE ST,200,19120,8,35,Olney-Feltonville,179,3,Andrew J. Morrison School,-75.12781,40.027397
2.02335E+11,Black (Non-Hispanic),Male,Fatal,10/12/2023 8:54,No,32,W ASHDALE ST,200,19120,8,35,Olney-Feltonville,179,3,Andrew J. Morrison School,-75.12781,40.027397
2.02335E+11,Black (Non-Hispanic),Male,Nonfatal,10/12/2023 7:02,Yes,39,W ASHDALE ST,400,19120,8,35,Olney-Feltonville,179,3,Andrew J. Morrison School,-75.130772,40.027627999999986
2.02325E+11,Black (Non-Hispanic),Female,Nonfatal,10/11/2023 18:57,Yes,11,N 11TH ST,3500,19140,5,25,Hunting Park-Fairhill,197,3,Mary M. Bethune School,-75.146592,40.00551500000001
2.02318E+11,Black (Non-Hispanic),Male,Nonfatal,10/11/2023 16:57,No,33,S 60TH ST,600,19143,3,18,Cobbs Creek,191,8,William C. Bryant School,-75.242727,39.952306
2.02322E+11,Hispanic (Black or White),Male,Nonfatal,10/11/2023 16:41,No,25,N VAN PELT ST,2200,19132,5,22,Strawberry Mansion,181,3,William Dick School,-75.168319,39.98858900000001
2.02326E+11,Black (Non-Hispanic),Male,Nonfatal,10/10/2023 21:02,Yes,32,KENSINGTON AVE,2500,19125,7,26,Northern Liberties-West Kensington,175,2,Henry A. Brown School,-75.129181,39.98806500000001
2.02339E+11,Black (Non-Hispanic),Male,Nonfatal,10/10/2023 11:15,Yes,36,KING ST,500,19144,8,39,East Falls-Westside,198,3,John B. Kelly School,-75.177574,40.024215000000005
2.02322E+11,Black (Non-Hispanic),Male,Nonfatal,10/10/2023 11:08,No,19,N 18TH ST,1500,19121,5,22,Sharswood-Stanton,181,3,General George G. Meade School,-75.164706,39.97732399999999
2.02324E+11,Black (Non-Hispanic),Male,Nonfatal,10/9/2023 19:42,No,23,E SCHILLER ST,2500,19134,1,24,Richmond-Bridesburg,177,5,Bridesburg School,-75.099112,39.990135
2.02335E+11,Black (Non-Hispanic),Male,Nonfatal,10/9/2023 15:36,No,23,MASCHER ST,6200,19120,9,35,Oak Lane - Fernrock,203,3,Thomas K. Finletter School,-75.121442,40.04478899999999
2.02335E+11,Asian,Male,Nonfatal,10/9/2023 15:35,No,23,MASCHER ST,6200,19120,9,35,Oak Lane - Fernrock,203,3,Thomas K. Finletter School,-75.121442,40.04478899999999
2.02317E+11,Black (Non-Hispanic),Male,Nonfatal,10/8/2023 23:45,No,42,RODMAN ST,1700,19146,2,17,Center City West,186,1,Albert M. Greenfield School,-75.170399,39.944577999999986
2.02314E+11,Black (Non-Hispanic),Male,Nonfatal,10/8/2023 23:41,No,15,COLLOM ST,200,19144,8,14,Germantown,198,4,Mastery Charter School at Wister,-75.162352,40.03407
2.02322E+11,Black (Non-Hispanic),Male,Nonfatal,10/8/2023 20:19,No,19,W GLENWOOD AVE,2700,19121,5,22,Strawberry Mansion,195,3,Edward Gideon School,-75.179248,39.985215
2.02322E+11,Black (Non-Hispanic),Male,Nonfatal,10/8/2023 20:19,No,15,W GLENWOOD AVE,2700,19121,5,22,Strawberry Mansion,195,3,Edward Gideon School,-75.179248,39.985215
2.02315E+11,Black (Non-Hispanic),Male,Fatal,10/8/2023 18:29,No,41,HELLERMAN ST,4600,19135,6,15,Wissinoming-Tacony,173,5,Hamilton Disston School,-75.05093,40.023465
2.02303E+11,Black (Non-Hispanic),Male,Nonfatal,10/8/2023 17:13,No,37,S 4TH ST,800,19147,1,3,Pennsport-Queen Village,175,1,William M. Meredith School,-75.150125,39.937181
2.02303E+11,White (Non-Hispanic),Male,Nonfatal,10/8/2023 17:13,No,32,S 4TH ST,800,19147,1,3,Pennsport-Queen Village,175,1,William M. Meredith School,-75.150125,39.937181
2.02306E+11,Black (Non-Hispanic),Male,Fatal,10/8/2023 15:35,No,31,N 5TH ST,400,19123,1,6,Northern Liberties-West Kensington,175,1,General Philip Kearny School,-75.147012,39.959761
2.02325E+11,Black (Non-Hispanic),Male,Fatal,10/8/2023 2:29,Yes,23,N 6TH ST,3900,19140,7,25,Hunting Park-Fairhill,197,3,Alexander K. McClure School,-75.137965,40.01141299999999
2.02325E+11,Hispanic (Black or White),Male,Nonfatal,10/8/2023 2:29,Yes,36,N 6TH ST,3900,19140,7,25,Hunting Park-Fairhill,197,3,Alexander K. McClure School,-75.137965,40.01141299999999
2.02335E+11,Black (Non-Hispanic),Male,Nonfatal,10/8/2023 1:51,Yes,30,W TABOR RD,500,19120,9,35,Olney-Feltonville,179,3,James R. Lowell School,-75.130964,40.03483099999998
2.02318E+11,Black (Non-Hispanic),Male,Nonfatal,10/7/2023 23:19,No,20,S SALFORD ST,500,19143,3,18,Cobbs Creek,191,8,William C. Bryant School,-75.241872,39.95342800000002
2.02318E+11,Black (Non-Hispanic),Male,Fatal,10/7/2023 23:19,No,20,S SALFORD ST,500,19143,3,18,Cobbs Creek,191,8,William C. Bryant School,-75.241872,39.95342800000002
2.02335E+11,Black (Non-Hispanic),Female,Nonfatal,10/7/2023 20:49,Yes,13,N WARNOCK ST,5900,19141,9,35,Oak Lane - Fernrock,201,3,Julia W. Howe School,-75.137906,40.043208000000014
2.02339E+11,Black (Non-Hispanic),Female,Fatal,10/7/2023 13:48,No,40,W LEHIGH AVE,2500,19132,4,39,Nicetown-Tioga,195,7,Thomas M. Peirce School,-75.172724,39.9965
2.02319E+11,Black (Non-Hispanic),Male,Nonfatal,10/7/2023 9:43,No,44,ATWOOD RD,700,19151,4,19,Haddington-Overbrook,192,7,Lewis C. Cassidy Academics Plus School,-75.250307,39.974582000000005
2.02316E+11,Black (Non-Hispanic),Male,Nonfatal,10/6/2023 23:03,No,20,BROOKLYN ST,600,19104,3,16,Mill Creek-Parkside,190,7,Alain Locke School,-75.207807,39.962432
2.02314E+11,Black (Non-Hispanic),Male,Fatal,10/6/2023 2:47,No,44,GERMANTOWN AVE,5700,19144,8,14,Germantown,201,4,Anna L. Lingelbach School,-75.175133,40.036104
2.02319E+11,Black (Non-Hispanic),Male,Nonfatal,10/5/2023 23:01,No,20,JEFFERSON ST,5200,19131,4,19,Overbrook Park-Wynnefield Heights,190,7,Edward Heston School,-75.225372,39.979449
2.02302E+11,White (Non-Hispanic),Female,Nonfatal,10/5/2023 19:07,No,32,WHITAKER AVE,7500,19111,10,2,Rhawnhurst-Fox Chase,172,5,Kennedy C. Crossan School,-75.073081,40.06112000000001
2.02339E+11,Black (Non-Hispanic),Male,Nonfatal,10/4/2023 23:21,No,22,N CROSKEY ST,2700,19132,8,39,Nicetown-Tioga,197,3,Thomas M. Peirce School,-75.168114,39.995748
2.02319E+11,Black (Non-Hispanic),Male,Nonfatal,10/4/2023 20:10,No,36,MASTER ST,5500,19131,4,19,Haddington-Overbrook,192,7,Universal Charter School at Bluford,-75.232456,39.97362600000004
2.02319E+11,Black (Non-Hispanic),Male,Nonfatal,10/4/2023 20:10,No,16,MASTER ST,5500,19131,4,19,Haddington-Overbrook,192,7,Universal Charter School at Bluford,-75.232456,39.97362600000004
2.02302E+11,Other/Unknown,Male,Fatal,10/4/2023 19:07,No,,WHITAKER AVE,7500,19111,10,2,Rhawnhurst-Fox Chase,172,5,Kennedy C. Crossan School,-75.073081,40.06112000000001
2.02302E+11,White (Non-Hispanic),Male,Nonfatal,10/4/2023 19:07,No,34,WHITAKER AVE,7500,19111,10,2,Rhawnhurst-Fox Chase,172,5,Kennedy C. Crossan School,-75.073081,40.06112000000001
2.02302E+11,White (Non-Hispanic),Male,Nonfatal,10/4/2023 19:07,No,33,WHITAKER AVE,7500,19111,10,2,Rhawnhurst-Fox Chase,172,5,Kennedy C. Crossan School,-75.073081,40.06112000000001
2.02302E+11,White (Non-Hispanic),Male,Nonfatal,10/4/2023 19:07,No,37,WHITAKER AVE,7500,19111,10,2,Rhawnhurst-Fox Chase,172,5,Kennedy C. Crossan School,-75.073081,40.06112000000001
2.02315E+11,Black (Non-Hispanic),Female,Nonfatal,10/4/2023 4:12,Yes,20,TORRESDALE AVE,4100,19124,7,15,Frankford,179,2,Allen M. Stearne School,-75.090559,40.006187
2.02306E+11,White (Non-Hispanic),Male,Fatal,10/4/2023 3:11,No,38,APPLETREE ST,1000,19107,1,6,Center City East,175,1,General George A. McCall School,-75.156956,39.95423399999999
2.02315E+11,Black (Non-Hispanic),Male,Fatal,10/4/2023 1:24,Yes,18,TORRESDALE AVE,4100,19124,7,15,Frankford,179,2,Allen M. Stearne School,-75.090559,40.006187
2.02302E+11,White (Non-Hispanic),Female,Nonfatal,10/3/2023 19:25,Yes,52,E ROOSEVELT BLVD,4400,19124,9,2,Lawndale-Crescentville,179,2,Universal Charter School at Creighton,-75.100525,40.029119999999985
2.02326E+11,White (Non-Hispanic),Male,Nonfatal,10/3/2023 12:43,No,19,N FRONT ST,2300,19133,7,26,Northern Liberties-West Kensington,197,2,William H. Hunter School,-75.132245,39.98496299999999
2.02322E+11,Black (Non-Hispanic),Male,Nonfatal,10/3/2023 11:30,No,24,N BROAD ST,1600,19121,5,22,Sharswood-Stanton,181,3,General George G. Meade School,-75.158153,39.97798699999999
2.02325E+11,White (Non-Hispanic),Female,Nonfatal,10/2/2023 23:37,No,51,W VENANGO ST,600,19140,7,25,Hunting Park-Fairhill,197,3,Bayard Taylor School,-75.140429,40.006194999999984
2.02325E+11,White (Non-Hispanic),Male,Nonfatal,10/2/2023 21:05,No,23,N 7TH ST,3500,19140,7,25,Hunting Park-Fairhill,197,3,Bayard Taylor School,-75.140992,40.005781
2.02315E+11,Black (Non-Hispanic),Male,Nonfatal,10/2/2023 13:45,No,26,GRISCOM ST,4200,19124,7,15,Frankford,177,2,John Marshall School,-75.092295,40.00934999999998
2.02322E+11,Black (Non-Hispanic),Male,Nonfatal,10/2/2023 12:04,Yes,57,N 16TH ST,2200,19132,5,22,Sharswood-Stanton,197,3,Tanner G. Duckrey School,-75.159488,39.986736999999984
2.02302E+11,Black (Non-Hispanic),Female,Fatal,10/2/2023 4:48,No,42,LARDNER ST,300,19111,9,2,Lawndale-Crescentville,203,2,Benjamin Franklin School,-75.101026,40.047656
2.02302E+11,Black (Non-Hispanic),Female,Nonfatal,10/2/2023 4:48,No,43,LARDNER ST,300,19111,9,2,Lawndale-Crescentville,203,2,Benjamin Franklin School,-75.101026,40.047656
2.02302E+11,Black (Non-Hispanic),Male,Fatal,10/2/2023 4:48,No,61,LARDNER ST,300,19111,9,2,Lawndale-Crescentville,203,2,Benjamin Franklin School,-75.101026,40.047656
2.02317E+11,White (Non-Hispanic),Male,Fatal,10/2/2023 1:28,Yes,39,WATKINS ST,2300,19145,2,17,Schuylkill-Point Breeze,186,8,Delaplaine McDaniel School,-75.184689,39.930871
2.02302E+11,Black (Non-Hispanic),Female,Fatal,10/2/2023 0:48,No,63,LARDNER ST,300,19111,9,2,Lawndale-Crescentville,203,2,Benjamin Franklin School,-75.101026,40.047656
2.02319E+11,Black (Non-Hispanic),Female,Nonfatal,10/1/2023 23:04,No,34,MARKET ST,5500,19139,4,19,Haddington-Overbrook,190,7,John Barry School,-75.232538,39.961021
2.02335E+11,Black (Non-Hispanic),Male,Nonfatal,10/1/2023 21:47,No,13,N 5TH ST,5300,19120,8,35,Olney-Feltonville,179,3,Andrew J. Morrison School,-75.131482,40.031920000000014
2.02322E+11,Black (Non-Hispanic),Male,Nonfatal,10/1/2023 19:44,No,14,N 11TH ST,1700,19122,5,22,Poplar-Temple,181,3,Paul L. Dunbar School,-75.152553,39.97802100000003
2.02325E+11,Hispanic (Black or White),Male,Fatal,10/1/2023 17:52,No,24,W PIKE ST,400,19140,7,25,Hunting Park-Fairhill,180,2,Bayard Taylor School,-75.13532,40.010349999999995
2.02315E+11,Black (Non-Hispanic),Male,Nonfatal,9/30/2023 21:38,Yes,55,FRANKFORD AVE,4900,19124,7,15,Frankford,179,2,Mastery Charter School at Smedley,-75.080716,40.01987900000002
2.02315E+11,Black (Non-Hispanic),Male,Nonfatal,9/30/2023 21:38,Yes,20,FRANKFORD AVE,4900,19124,7,15,Frankford,179,2,Mastery Charter School at Smedley,-75.080716,40.01987900000002
2.02315E+11,Black (Non-Hispanic),Male,Nonfatal,9/30/2023 16:15,No,34,TORRESDALE AVE,5200,19124,7,15,Wissinoming-Tacony,179,2,James J. Sullivan School,-75.068876,40.01360100000001
2.02322E+11,Black (Non-Hispanic),Male,Nonfatal,9/30/2023 0:47,No,38,N 31ST ST,2500,19132,5,22,Strawberry Mansion,195,7,Dr. Ethel Allen School,-75.182474,39.99453299999999
2.02312E+11,Black (Non-Hispanic),Male,Nonfatal,9/29/2023 21:35,Yes,28,ISLAND AVE,4200,19153,2,12,Airport-Navy Yard,185,1,John M. Patterson School,-75.230609,39.88408999999999
2.02322E+11,Black (Non-Hispanic),Female,Nonfatal,9/29/2023 21:11,No,58,N DOVER ST,2100,19121,5,22,Strawberry Mansion,195,3,Richard R. Wright School,-75.179661,39.989142
2.02322E+11,Black (Non-Hispanic),Male,Nonfatal,9/29/2023 21:11,No,59,N DOVER ST,2100,19121,5,22,Strawberry Mansion,195,3,Richard R. Wright School,-75.179661,39.989142
2.02324E+11,Black (Non-Hispanic),Male,Fatal,9/29/2023 19:39,No,24,E ALLEGHENY AVE,1900,19134,1,24,Juniata Park-Harrowgate,180,5,John H. Webster School,-75.111373,39.994237000000005
2.02324E+11,Hispanic (Black or White),Male,Nonfatal,9/29/2023 14:46,Yes,28,E INDIANA AVE,500,19134,7,24,Upper Kensington,180,2,Lewis Elkin School,-75.12169,39.99439
2.02314E+11,Black (Non-Hispanic),Male,Nonfatal,9/29/2023 10:40,No,27,CHEW AVE,5300,19138,8,14,Germantown,198,4,Mastery Charter School at Pastorius,-75.159379,40.042198000000006
2.02314E+11,Black (Non-Hispanic),Male,Nonfatal,9/28/2023 19:35,No,43,E PRICE ST,700,19144,8,14,Germantown,201,4,Theodore Roosevelt School,-75.167256,40.045033999999994
2.02315E+11,Black (Non-Hispanic),Male,Nonfatal,9/28/2023 18:43,No,35,FRANKFORD AVE,4900,19124,7,15,Frankford,179,2,The Philadelphia Charter School for Arts and Sciences,-75.081033,40.019757
2.02319E+11,Black (Non-Hispanic),Male,Nonfatal,9/28/2023 18:43,No,30,MASTER ST,5100,19131,3,19,Mill Creek-Parkside,190,7,Edward Heston School,-75.2243,39.974420999999985
2.02326E+11,Hispanic (Black or White),Male,Nonfatal,9/28/2023 17:35,Yes,36,N LAWRENCE ST,2600,19133,7,26,Northern Liberties-West Kensington,197,2,John Welsh School,-75.139593,39.990701
2.02302E+11,Hispanic (Black or White),Male,Fatal,9/28/2023 13:57,Yes,47,GRANITE ST,800,19124,9,2,Lawndale-Crescentville,179,2,Laura H. Carnell School,-75.092394,40.031768
2.02319E+11,Black (Non-Hispanic),Male,Fatal,9/28/2023 2:23,No,44,EUCLID ST,5400,19131,4,19,Overbrook Park-Wynnefield Heights,192,7,Mastery Charter School at Mann,-75.231867,39.98499700000001
2.02316E+11,Black (Non-Hispanic),Male,Fatal,9/27/2023 20:47,No,39,OGDEN ST,3900,19104,3,16,Mill Creek-Parkside,195,7,Belmont Charter School,-75.202394,39.96960000000001
2.02314E+11,Black (Non-Hispanic),Male,Nonfatal,9/27/2023 19:39,No,39,E WALNUT LN,1900,19138,9,14,Ogontz,200,4,William Rowen School,-75.153867,40.06388999999998
2.02303E+11,Hispanic (Black or White),Male,Nonfatal,9/27/2023 18:28,Yes,27,WASHINGTON AVE,900,19147,1,3,Southwark-Bella Vista,182,1,Andrew Jackson School,-75.158611,39.93630800000002
2.02316E+11,Black (Non-Hispanic),Male,Nonfatal,9/27/2023 17:40,No,33,PARRISH ST,3900,19104,3,16,Mill Creek-Parkside,195,7,Belmont Charter School,-75.202733,39.968562
2.02319E+11,Black (Non-Hispanic),Male,Nonfatal,9/27/2023 12:40,No,23,N 63RD ST,900,19151,4,19,Haddington-Overbrook,192,7,Overbrook Elementary School,-75.24638,39.97969200000001
2.02319E+11,Black (Non-Hispanic),Male,Nonfatal,9/27/2023 12:40,No,40,N 63RD ST,900,19151,4,19,Haddington-Overbrook,192,7,Overbrook Elementary School,-75.24638,39.97969200000001
2.02319E+11,Black (Non-Hispanic),Male,Nonfatal,9/27/2023 12:40,No,35,N 63RD ST,900,19151,4,19,Haddington-Overbrook,192,7,Overbrook Elementary School,-75.24638,39.97969200000001
2.02325E+11,Black (Non-Hispanic),Male,Nonfatal,9/26/2023 23:41,No,33,N ORKNEY ST,2700,19133,7,25,Hunting Park-Fairhill,197,2,Julia de Burgos School,-75.139527,39.992885
2.02302E+11,Black (Non-Hispanic),Male,Fatal,9/26/2023 22:10,Yes,36,ROBBINS ST,1200,19111,9,2,Oxford Circle,202,2,Laura H. Carnell School,-75.081564,40.040123000000015
2.02326E+11,Hispanic (Black or White),Male,Fatal,9/26/2023 21:57,Yes,27,MUTTER ST,2200,19133,7,26,Northern Liberties-West Kensington,197,2,William H. Hunter School,-75.134607,39.98478099999998
2.02322E+11,Black (Non-Hispanic),Male,Nonfatal,9/26/2023 5:44,No,32,DIAMOND ST,2000,19121,5,22,Strawberry Mansion,195,3,Mastery Charter School at Douglass,-75.166447,39.98595199999999
2.02317E+11,Asian,Male,Nonfatal,9/25/2023 23:33,Yes,,S 17TH ST,500,19146,2,17,Center City West,186,1,Albert M. Greenfield School,-75.170135,39.945233
2.02325E+11,White (Non-Hispanic),Male,Nonfatal,9/25/2023 21:31,Yes,57,N ORIANNA ST,2700,19133,7,25,Hunting Park-Fairhill,197,2,Julia de Burgos School,-75.1378,39.992636000000005
2.02335E+11,Black (Non-Hispanic),Male,Fatal,9/25/2023 1:00,Yes,28,N CARLISLE ST,4500,19140,8,35,Logan,198,3,Edward T. Steel School,-75.14939,40.021681
2.02322E+11,Black (Non-Hispanic),Male,Nonfatal,9/24/2023 5:43,No,24,W LEHIGH AVE,1500,19132,5,22,Sharswood-Stanton,197,3,Tanner G. Duckrey School,-75.156513,39.99418299999997
2.02319E+11,Black (Non-Hispanic),Male,Nonfatal,9/24/2023 0:53,No,28,HAVERFORD AVE,5200,19139,3,19,Haddington-Overbrook,190,7,James Rhoads School,-75.224946,39.96498600000001
2.02326E+11,Asian,Female,Nonfatal,9/23/2023 19:33,Yes,43,ARAMINGO AVE,0,19125,1,26,Richmond-Bridesburg,177,2,Richmond School,-75.121036,39.975230999999994
2.02312E+11,Black (Non-Hispanic),Male,Fatal,9/23/2023 1:00,Yes,25,CHESTER AVE,5200,19143,3,12,Paschall-Kingsessing,186,8,Benjamin B. Comegys School,-75.220717,39.94132999999999
2.02339E+11,Black (Non-Hispanic),Male,Nonfatal,9/22/2023 23:29,No,30,GERMANTOWN AVE,4100,19140,8,39,Nicetown-Tioga,198,3,Edward T. Steel School,-75.154773,40.017754000000004
2.02339E+11,Black (Non-Hispanic),Male,Fatal,9/22/2023 23:29,No,41,GERMANTOWN AVE,4100,19140,8,39,Nicetown-Tioga,198,3,Edward T. Steel School,-75.154773,40.017754000000004
2.02319E+11,Black (Non-Hispanic),Male,Nonfatal,9/21/2023 8:40,No,15,FILBERT ST,5800,19139,4,19,Haddington-Overbrook,190,7,John Barry School,-75.237172,39.962397999999986
2.02322E+11,White (Non-Hispanic),Male,Nonfatal,9/21/2023 6:31,No,68,N PARK AVE,2400,19132,5,22,Poplar-Temple,181,3,John F. Hartranft School,-75.154003,39.99029999999999
2.02325E+11,Black (Non-Hispanic),Male,Fatal,9/21/2023 0:16,No,20,W LEHIGH AVE,1300,19132,5,22,Hunting Park-Fairhill,181,3,Mastery Charter School at Clymer,-75.153314,39.99378599999999
2.02312E+11,Black (Non-Hispanic),Male,Fatal,9/20/2023 21:06,No,32,REGENT ST,5500,19143,3,12,Paschall-Kingsessing,186,8,S. Weir Mitchell School,-75.22441,39.93793800000002
2.02322E+11,Black (Non-Hispanic),Male,Nonfatal,9/20/2023 20:35,Yes,21,N 18TH ST,2500,19132,5,22,Sharswood-Stanton,181,3,Tanner G. Duckrey School,-75.161643,39.991783
2.02319E+11,Black (Non-Hispanic),Male,Nonfatal,9/20/2023 15:26,No,28,N RUBY ST,100,19139,3,19,Haddington-Overbrook,190,7,Universal Charter School at Daroff,-75.227494,39.962804000000006
2.02319E+11,Black (Non-Hispanic),Male,Nonfatal,9/20/2023 13:26,No,30,W BERKS ST,5600,19131,4,19,Overbrook Park-Wynnefield Heights,192,7,Mastery Charter School at Mann,-75.234858,39.98533299999999
2.02322E+11,Black (Non-Hispanic),Male,Fatal,9/20/2023 12:48,No,33,CLIFFORD ST,3100,19121,5,22,Strawberry Mansion,195,3,James G. Blaine School,-75.185117,39.982938999999995
2.02317E+11,Black (Non-Hispanic),Male,Fatal,9/20/2023 10:39,Yes,24,S BUCKNELL ST,1200,19146,2,17,Schuylkill-Point Breeze,186,8,Edwin M. Stanton School,-75.182967,39.938134
2.02335E+11,Black (Non-Hispanic),Male,Nonfatal,9/19/2023 12:37,Yes,23,W ALBANUS ST,1300,19141,8,35,Logan,201,3,Jay Cooke School,-75.145138,40.028117000000016
2.02319E+11,Black (Non-Hispanic),Male,Nonfatal,9/19/2023 10:01,No,32,N GROSS ST,300,19139,4,19,Haddington-Overbrook,192,7,Lewis C. Cassidy Academics Plus School,-75.246639,39.96870700000001
2.02309E+11,Hispanic (Black or White),Male,Nonfatal,9/18/2023 23:51,Yes,38,WALNUT ST,1400,19102,2,9,Center City West,182,1,Albert M. Greenfield School,-75.165445,39.94946400000001
2.02319E+11,Black (Non-Hispanic),Male,Nonfatal,9/18/2023 23:46,No,41,N 55TH ST,1200,19131,4,19,Haddington-Overbrook,192,7,Universal Charter School at Bluford,-75.230871,39.97165899999999
2.02324E+11,Black (Non-Hispanic),Male,Nonfatal,9/18/2023 19:29,No,23,E SOMERSET ST,1800,19134,7,24,Upper Kensington,175,1,Frances E. Willard School,-75.122542,39.991390999999986
2.02324E+11,Hispanic (Black or White),Male,Fatal,9/18/2023 19:29,No,19,E SOMERSET ST,1800,19134,7,24,Upper Kensington,175,1,Frances E. Willard School,-75.122542,39.991390999999986
2.02335E+11,Black (Non-Hispanic),Male,Nonfatal,9/18/2023 16:21,Yes,36,N 2ND ST,6200,19120,9,35,Oak Lane - Fernrock,203,3,James R. Lowell School,-75.123584,40.04502400000002
2.02307E+11,Black (Non-Hispanic),Male,Nonfatal,9/18/2023 10:10,No,34,BYBERRY RD,1200,19116,10,7,Somerton,170,5,Watson Comly School,-75.006042,40.116344999999974
2.02324E+11,White (Non-Hispanic),Male,Nonfatal,9/18/2023 1:14,No,23,FRANKFORD AVE,2800,19134,7,24,Upper Kensington,175,1,Frances E. Willard School,-75.120109,39.988872999999984
2.02326E+11,Hispanic (Black or White),Male,Fatal,9/18/2023 0:22,Yes,42,ARAMINGO AVE,2400,19125,1,26,Richmond-Bridesburg,177,2,Horatio B. Hackett School,-75.12108,39.975385
2.02308E+11,Hispanic (Black or White),Male,Nonfatal,9/17/2023 22:51,Yes,29,STRAHLE ST,4600,19136,6,8,Torresdale South-Pennypack Park,173,5,Thomas Holme School,-75.012398,40.04371299999999
2.02335E+11,Black (Non-Hispanic),Male,Fatal,9/17/2023 21:38,Yes,48,N SYDENHAM ST,5200,19141,8,35,Logan,198,4,James Logan School,-75.148853,40.032756999999975
2.02339E+11,Black (Non-Hispanic),Male,Fatal,9/17/2023 2:33,No,,N BONSALL ST,2800,19132,8,39,Nicetown-Tioga,197,3,Thomas M. Peirce School,-75.169176,39.998282
2.02335E+11,Black (Non-Hispanic),Male,Fatal,9/16/2023 23:27,Yes,22,W CHEW AVE,1400,19141,8,35,Ogontz,201,4,Julia W. Howe School,-75.144638,40.039839999999984
2.02339E+11,Black (Non-Hispanic),Male,Nonfatal,9/16/2023 18:45,No,14,W LOGAN ST,100,19144,8,39,East Falls-Westside,198,3,John B. Kelly School,-75.165363,40.02538000000001
2.02314E+11,Black (Non-Hispanic),Male,Fatal,9/16/2023 12:14,No,26,N 19TH ST,7300,19126,9,14,West Oak Lane-Cedarbrook,203,4,William Rowen School,-75.146685,40.067039
2.02322E+11,Black (Non-Hispanic),Male,Fatal,9/16/2023 8:50,No,33,W CUMBERLAND ST,1800,19132,5,22,Sharswood-Stanton,181,3,Tanner G. Duckrey School,-75.161899,39.99172
2.02314E+11,Black (Non-Hispanic),Female,Fatal,9/16/2023 1:30,Yes,45,E PASTORIUS ST,100,19144,8,14,East Mt. Airy,201,4,Theodore Roosevelt School,-75.177152,40.044098999999996
2.02322E+11,Black (Non-Hispanic),Female,Nonfatal,9/15/2023 19:10,No,24,N 30TH ST,2000,19121,5,22,Strawberry Mansion,195,3,James G. Blaine School,-75.182523,39.986720999999996
2.02322E+11,Black (Non-Hispanic),Male,Nonfatal,9/15/2023 19:10,No,27,N 30TH ST,2000,19121,5,22,Strawberry Mansion,195,3,James G. Blaine School,-75.182523,39.986720999999996
2.02335E+11,Black (Non-Hispanic),Male,Nonfatal,9/15/2023 1:05,No,37,OLD YORK RD,5500,19141,9,35,Logan,201,3,Lindley Academy Charter at Birney,-75.144636,40.03694400000001
2.02318E+11,Black (Non-Hispanic),Male,Nonfatal,9/14/2023 22:43,Yes,27,S 30TH ST,100,19104,3,18,University City,188,8,Samuel Powel School,-75.183886,39.952577
2.02315E+11,Black (Non-Hispanic),Male,Fatal,9/14/2023 21:16,No,37,TULIP ST,6900,19135,6,15,Wissinoming-Tacony,173,5,Hamilton Disston School,-75.041312,40.023807999999995
2.02312E+11,Black (Non-Hispanic),Male,Nonfatal,9/14/2023 16:09,No,21,PASCHALL AVE,6200,19142,2,12,Paschall-Kingsessing,191,8,Thomas G. Morton School,-75.229578,39.92698200000002
2.02324E+11,White (Non-Hispanic),Male,Fatal,9/14/2023 3:55,Yes,39,E MADISON ST,1800,19134,1,24,Juniata Park-Harrowgate,180,5,John H. Webster School,-75.111846,39.996787999999995
2323,Other/Unknown,Male,Nonfatal,9/14/2023 0:00,No,,E CLEARFIELD ST,1900,19134,1,24,Upper Kensington,175,1,Frances E. Willard School,-75.11385,39.992976
2.02326E+11,White (Non-Hispanic),Male,Nonfatal,9/13/2023 22:11,Yes,35,W YORK ST,600,19133,5,26,Northern Liberties-West Kensington,181,3,John F. Hartranft School,-75.143234,39.98777
2.02326E+11,Black (Non-Hispanic),Male,Nonfatal,9/13/2023 22:11,Yes,34,W YORK ST,600,19133,5,26,Northern Liberties-West Kensington,181,3,John F. Hartranft School,-75.143234,39.98777
2.02326E+11,Black (Non-Hispanic),Male,Nonfatal,9/13/2023 22:11,Yes,17,W YORK ST,600,19133,5,26,Northern Liberties-West Kensington,181,3,John F. Hartranft School,-75.143234,39.98777
2.02326E+11,Black (Non-Hispanic),Male,Nonfatal,9/13/2023 22:11,Yes,37,W YORK ST,600,19133,5,26,Northern Liberties-West Kensington,181,3,John F. Hartranft School,-75.143234,39.98777
2.02335E+11,Black (Non-Hispanic),Male,Fatal,9/13/2023 20:21,No,24,68TH AVE,1600,19126,9,35,Ogontz,203,4,Prince Hall School,-75.145447,40.05724699999999
2.02325E+11,Black (Non-Hispanic),Male,Fatal,9/12/2023 23:11,No,43,N 6TH ST,3500,19140,7,25,Hunting Park-Fairhill,197,3,Bayard Taylor School,-75.139532,40.00466899999999
2.02316E+11,Black (Non-Hispanic),Male,Fatal,9/12/2023 21:01,No,35,N 37TH ST,700,19104,3,16,Mill Creek-Parkside,195,7,Morton McMichael School,-75.196732,39.967393
2.02312E+11,Black (Non-Hispanic),Male,Nonfatal,9/12/2023 10:08,Yes,20,WOODLAND AVE,6200,19142,2,12,Paschall-Kingsessing,191,8,Thomas G. Morton School,-75.230751,39.92801899999999
2.02319E+11,Black (Non-Hispanic),Male,Fatal,9/12/2023 0:07,No,31,SUMMER ST,5500,19139,4,19,Haddington-Overbrook,190,7,Universal Charter School at Daroff,-75.231793,39.964803999999994
2.02303E+11,Black (Non-Hispanic),Male,Nonfatal,9/11/2023 19:45,No,37,S 7TH ST,2300,19148,1,3,Snyder-Whitman,184,1,Francis S. Key School,-75.158718,39.92027099999999
2.02339E+11,Black (Non-Hispanic),Male,Nonfatal,9/11/2023 16:52,No,17,JUDSON ST,2900,19132,8,39,Nicetown-Tioga,197,3,Thomas M. Peirce School,-75.169297,40.00029599999999
2.02325E+11,Black (Non-Hispanic),Female,Nonfatal,9/11/2023 16:22,Yes,34,W ANNSBURY ST,600,19140,7,25,Logan,197,3,Cayuga School,-75.137,40.020402
2.02324E+11,Hispanic (Black or White),Male,Nonfatal,9/11/2023 2:59,No,18,E CLEARFIELD ST,700,19134,7,24,Upper Kensington,180,2,Lewis Elkin School,-75.117568,39.995368
2.02325E+11,Black (Non-Hispanic),Male,Nonfatal,9/11/2023 1:41,No,19,W ERIE AVE,1100,19140,5,25,Hunting Park-Fairhill,197,3,Mary M. Bethune School,-75.145962,40.008591
2.02302E+11,Hispanic (Black or White),Male,Nonfatal,9/11/2023 0:49,Yes,31,FANSHAWE ST,1400,19111,9,2,Oxford Circle,202,2,J. Hampton Moore School,-75.074829,40.04263499999999
2.02324E+11,White (Non-Hispanic),Female,Nonfatal,9/10/2023 16:50,Yes,34,LEWIS ST,2800,19137,6,24,Richmond-Bridesburg,177,5,Bridesburg School,-75.08073,39.991972000000004
2.02318E+11,Black (Non-Hispanic),Male,Nonfatal,9/10/2023 5:17,No,31,REGENT SQ,4200,19104,3,18,University City,188,8,Sadie Alexander School,-75.207037,39.94756999999999
2.02324E+11,Black (Non-Hispanic),Male,Nonfatal,9/10/2023 3:23,Yes,39,RICHMOND ST,3100,19134,1,24,Richmond-Bridesburg,177,1,Richmond School,-75.101688,39.98290899999999
2.02326E+11,Hispanic (Black or White),Male,Fatal,9/10/2023 2:49,No,37,N FRANKLIN ST,2600,19133,5,26,Northern Liberties-West Kensington,197,3,John F. Hartranft School,-75.144401,39.992520000000006
2.02326E+11,Hispanic (Black or White),Male,Nonfatal,9/10/2023 2:49,No,32,W LEHIGH AVE,700,19133,5,26,Northern Liberties-West Kensington,197,3,John F. Hartranft School,-75.144346,39.992512999999995
2.02325E+11,Hispanic (Black or White),Female,Nonfatal,9/9/2023 22:39,Yes,18,N 7TH ST,3100,19133,5,25,Hunting Park-Fairhill,197,3,Potter-Thomas School,-75.142523,39.998646999999984
2.02314E+11,Black (Non-Hispanic),Male,Nonfatal,9/9/2023 22:22,Yes,52,E ASHMEAD ST,200,19144,8,14,Germantown,198,4,Mastery Charter School at Wister,-75.164475,40.033649
2.02312E+11,Black (Non-Hispanic),Male,Nonfatal,9/9/2023 4:17,No,39,GREENWAY AVE,6500,19142,2,12,Paschall-Kingsessing,191,8,Joseph W. Catharine School,-75.235606,39.926624000000004
2.02319E+11,Black (Non-Hispanic),Male,Nonfatal,9/8/2023 17:49,Yes,24,N ALLISON ST,1600,19131,4,19,Haddington-Overbrook,192,7,Edward Heston School,-75.233173,39.977700000000006
2.02312E+11,Black (Non-Hispanic),Female,Fatal,9/7/2023 21:49,No,80,BROOMALL ST,5700,19143,3,12,Paschall-Kingsessing,188,8,Add B. Anderson School,-75.235522,39.94249200000001
2.02322E+11,Black (Non-Hispanic),Male,Nonfatal,9/7/2023 13:03,No,34,EDGLEY ST,2900,19121,5,22,Strawberry Mansion,195,3,Richard R. Wright School,-75.18065,39.98822900000002
